%time,field.header.seq,field.header.stamp,field.header.frame_id,field.child_frame_id,field.pose.pose.position.x,field.pose.pose.position.y,field.pose.pose.position.z,field.pose.pose.orientation.x,field.pose.pose.orientation.y,field.pose.pose.orientation.z,field.pose.pose.orientation.w,field.pose.covariance0,field.pose.covariance1,field.pose.covariance2,field.pose.covariance3,field.pose.covariance4,field.pose.covariance5,field.pose.covariance6,field.pose.covariance7,field.pose.covariance8,field.pose.covariance9,field.pose.covariance10,field.pose.covariance11,field.pose.covariance12,field.pose.covariance13,field.pose.covariance14,field.pose.covariance15,field.pose.covariance16,field.pose.covariance17,field.pose.covariance18,field.pose.covariance19,field.pose.covariance20,field.pose.covariance21,field.pose.covariance22,field.pose.covariance23,field.pose.covariance24,field.pose.covariance25,field.pose.covariance26,field.pose.covariance27,field.pose.covariance28,field.pose.covariance29,field.pose.covariance30,field.pose.covariance31,field.pose.covariance32,field.pose.covariance33,field.pose.covariance34,field.pose.covariance35,field.twist.twist.linear.x,field.twist.twist.linear.y,field.twist.twist.linear.z,field.twist.twist.angular.x,field.twist.twist.angular.y,field.twist.twist.angular.z,field.twist.covariance0,field.twist.covariance1,field.twist.covariance2,field.twist.covariance3,field.twist.covariance4,field.twist.covariance5,field.twist.covariance6,field.twist.covariance7,field.twist.covariance8,field.twist.covariance9,field.twist.covariance10,field.twist.covariance11,field.twist.covariance12,field.twist.covariance13,field.twist.covariance14,field.twist.covariance15,field.twist.covariance16,field.twist.covariance17,field.twist.covariance18,field.twist.covariance19,field.twist.covariance20,field.twist.covariance21,field.twist.covariance22,field.twist.covariance23,field.twist.covariance24,field.twist.covariance25,field.twist.covariance26,field.twist.covariance27,field.twist.covariance28,field.twist.covariance29,field.twist.covariance30,field.twist.covariance31,field.twist.covariance32,field.twist.covariance33,field.twist.covariance34,field.twist.covariance35
1757065000000,13185,1757065000000,pioneer/odom,pioneer/base_link,0.105290511748,8.89604630532,0.115755066099,0.326890474358,0.176493238119,0.742738164203,0.557075196099,1e-05,0.0,0.0,0.0,0.0,0.0,0.0,1e-05,0.0,0.0,0.0,0.0,0.0,0.0,1e+12,0.0,0.0,0.0,0.0,0.0,0.0,1e+12,0.0,0.0,0.0,0.0,0.0,0.0,1e+12,0.0,0.0,0.0,0.0,0.0,0.0,0.001,-9.99812991148e-05,-0.000346412088769,0.0,0.0,0.0,0.00555005755342,0.0,0.0,0.0,0.0,0.0,0.0,0.0,0.0,0.0,0.0,0.0,0.0,0.0,0.0,0.0,0.0,0.0,0.0,0.0,0.0,0.0,0.0,0.0,0.0,0.0,0.0,0.0,0.0,0.0,0.0,0.0,0.0,0.0,0.0,0.0,0.0
1757075000000,13186,1757075000000,pioneer/odom,pioneer/base_link,0.105286966465,8.89604732581,0.115769579094,0.326897386347,0.176517966547,0.742747526409,0.557050822007,1e-05,0.0,0.0,0.0,0.0,0.0,0.0,1e-05,0.0,0.0,0.0,0.0,0.0,0.0,1e+12,0.0,0.0,0.0,0.0,0.0,0.0,1e+12,0.0,0.0,0.0,0.0,0.0,0.0,1e+12,0.0,0.0,0.0,0.0,0.0,0.0,0.001,-0.000968472713579,0.000902688238587,0.0,0.0,0.0,0.0062203178335,0.0,0.0,0.0,0.0,0.0,0.0,0.0,0.0,0.0,0.0,0.0,0.0,0.0,0.0,0.0,0.0,0.0,0.0,0.0,0.0,0.0,0.0,0.0,0.0,0.0,0.0,0.0,0.0,0.0,0.0,0.0,0.0,0.0,0.0,0.0,0.0
1757085000000,13187,1757085000000,pioneer/odom,pioneer/base_link,0.105257338342,8.89602797757,0.115757503243,0.326865853353,0.17653839014,0.742785054557,0.55701281264,1e-05,0.0,0.0,0.0,0.0,0.0,0.0,1e-05,0.0,0.0,0.0,0.0,0.0,0.0,1e+12,0.0,0.0,0.0,0.0,0.0,0.0,1e+12,0.0,0.0,0.0,0.0,0.0,0.0,1e+12,0.0,0.0,0.0,0.0,0.0,0.0,0.001,-0.00196929387258,0.00455895829259,0.0,0.0,0.0,0.0149547945744,0.0,0.0,0.0,0.0,0.0,0.0,0.0,0.0,0.0,0.0,0.0,0.0,0.0,0.0,0.0,0.0,0.0,0.0,0.0,0.0,0.0,0.0,0.0,0.0,0.0,0.0,0.0,0.0,0.0,0.0,0.0,0.0,0.0,0.0,0.0,0.0
1757095000000,13188,1757095000000,pioneer/odom,pioneer/base_link,0.105212582864,8.89600091252,0.115733354124,0.32680166841,0.176496407145,0.742850699796,0.556976234325,1e-05,0.0,0.0,0.0,0.0,0.0,0.0,1e-05,0.0,0.0,0.0,0.0,0.0,0.0,1e+12,0.0,0.0,0.0,0.0,0.0,0.0,1e+12,0.0,0.0,0.0,0.0,0.0,0.0,1e+12,0.0,0.0,0.0,0.0,0.0,0.0,0.001,-0.00158301404826,0.00495206802306,0.0,0.0,0.0,0.00927678313583,0.0,0.0,0.0,0.0,0.0,0.0,0.0,0.0,0.0,0.0,0.0,0.0,0.0,0.0,0.0,0.0,0.0,0.0,0.0,0.0,0.0,0.0,0.0,0.0,0.0,0.0,0.0,0.0,0.0,0.0,0.0,0.0,0.0,0.0,0.0,0.0
1757105000000,13189,1757105000000,pioneer/odom,pioneer/base_link,0.105160287528,8.89597835734,0.115689237015,0.32669727908,0.176395886197,0.742930087264,0.556963432024,1e-05,0.0,0.0,0.0,0.0,0.0,0.0,1e-05,0.0,0.0,0.0,0.0,0.0,0.0,1e+12,0.0,0.0,0.0,0.0,0.0,0.0,1e+12,0.0,0.0,0.0,0.0,0.0,0.0,1e+12,0.0,0.0,0.0,0.0,0.0,0.0,0.001,-0.00117520442938,0.00610606600677,0.0,0.0,0.0,0.00713993023064,0.0,0.0,0.0,0.0,0.0,0.0,0.0,0.0,0.0,0.0,0.0,0.0,0.0,0.0,0.0,0.0,0.0,0.0,0.0,0.0,0.0,0.0,0.0,0.0,0.0,0.0,0.0,0.0,0.0,0.0,0.0,0.0,0.0,0.0,0.0,0.0
1757115000000,13190,1757115000000,pioneer/odom,pioneer/base_link,0.105096591931,8.89595707489,0.115624593307,0.326550479856,0.176243555534,0.743027988411,0.556967145958,1e-05,0.0,0.0,0.0,0.0,0.0,0.0,1e-05,0.0,0.0,0.0,0.0,0.0,0.0,1e+12,0.0,0.0,0.0,0.0,0.0,0.0,1e+12,0.0,0.0,0.0,0.0,0.0,0.0,1e+12,0.0,0.0,0.0,0.0,0.0,0.0,0.001,-0.000785023809723,0.00695346544071,0.0,0.0,0.0,0.00381312714841,0.0,0.0,0.0,0.0,0.0,0.0,0.0,0.0,0.0,0.0,0.0,0.0,0.0,0.0,0.0,0.0,0.0,0.0,0.0,0.0,0.0,0.0,0.0,0.0,0.0,0.0,0.0,0.0,0.0,0.0,0.0,0.0,0.0,0.0,0.0,0.0
1757125000000,13191,1757125000000,pioneer/odom,pioneer/base_link,0.105023881674,8.89593841789,0.11554083053,0.32636442418,0.1760368211,0.743141508032,0.556990124945,1e-05,0.0,0.0,0.0,0.0,0.0,0.0,1e-05,0.0,0.0,0.0,0.0,0.0,0.0,1e+12,0.0,0.0,0.0,0.0,0.0,0.0,1e+12,0.0,0.0,0.0,0.0,0.0,0.0,1e+12,0.0,0.0,0.0,0.0,0.0,0.0,0.001,-0.000407734939678,0.00789585751655,0.0,0.0,0.0,0.00100376510721,0.0,0.0,0.0,0.0,0.0,0.0,0.0,0.0,0.0,0.0,0.0,0.0,0.0,0.0,0.0,0.0,0.0,0.0,0.0,0.0,0.0,0.0,0.0,0.0,0.0,0.0,0.0,0.0,0.0,0.0,0.0,0.0,0.0,0.0,0.0,0.0
1757135000000,13192,1757135000000,pioneer/odom,pioneer/base_link,0.104940901708,8.89592133251,0.115437722229,0.326138349197,0.175778101623,0.743272163453,0.557029915901,1e-05,0.0,0.0,0.0,0.0,0.0,0.0,1e-05,0.0,0.0,0.0,0.0,0.0,0.0,1e+12,0.0,0.0,0.0,0.0,0.0,0.0,1e+12,0.0,0.0,0.0,0.0,0.0,0.0,1e+12,0.0,0.0,0.0,0.0,0.0,0.0,0.001,-0.000101796096833,0.00891707263137,0.0,0.0,0.0,-0.00136707046177,0.0,0.0,0.0,0.0,0.0,0.0,0.0,0.0,0.0,0.0,0.0,0.0,0.0,0.0,0.0,0.0,0.0,0.0,0.0,0.0,0.0,0.0,0.0,0.0,0.0,0.0,0.0,0.0,0.0,0.0,0.0,0.0,0.0,0.0,0.0,0.0
1757145000000,13193,1757145000000,pioneer/odom,pioneer/base_link,0.104846004429,8.89590417286,0.115315436345,0.325871897845,0.175469765115,0.743422141582,0.55708292662,1e-05,0.0,0.0,0.0,0.0,0.0,0.0,1e-05,0.0,0.0,0.0,0.0,0.0,0.0,1e+12,0.0,0.0,0.0,0.0,0.0,0.0,1e+12,0.0,0.0,0.0,0.0,0.0,0.0,1e+12,0.0,0.0,0.0,0.0,0.0,0.0,0.001,-6.91971197954e-06,0.0102486694365,0.0,0.0,0.0,-0.00225493036787,0.0,0.0,0.0,0.0,0.0,0.0,0.0,0.0,0.0,0.0,0.0,0.0,0.0,0.0,0.0,0.0,0.0,0.0,0.0,0.0,0.0,0.0,0.0,0.0,0.0,0.0,0.0,0.0,0.0,0.0,0.0,0.0,0.0,0.0,0.0,0.0
1757155000000,13194,1757155000000,pioneer/odom,pioneer/base_link,0.104736777092,8.89588423999,0.115174740209,0.325565332029,0.175114991916,0.743594792343,0.557143373817,1e-05,0.0,0.0,0.0,0.0,0.0,0.0,1e-05,0.0,0.0,0.0,0.0,0.0,0.0,1e+12,0.0,0.0,0.0,0.0,0.0,0.0,1e+12,0.0,0.0,0.0,0.0,0.0,0.0,1e+12,0.0,0.0,0.0,0.0,0.0,0.0,0.001,-0.000126498247805,0.0118766638054,0.0,0.0,0.0,-0.0016536912935,0.0,0.0,0.0,0.0,0.0,0.0,0.0,0.0,0.0,0.0,0.0,0.0,0.0,0.0,0.0,0.0,0.0,0.0,0.0,0.0,0.0,0.0,0.0,0.0,0.0,0.0,0.0,0.0,0.0,0.0,0.0,0.0,0.0,0.0,0.0,0.0
1757165000000,13195,1757165000000,pioneer/odom,pioneer/base_link,0.104610409859,8.89585892277,0.115015580747,0.325217468143,0.174717135096,0.743793860517,0.557205719798,1e-05,0.0,0.0,0.0,0.0,0.0,0.0,1e-05,0.0,0.0,0.0,0.0,0.0,0.0,1e+12,0.0,0.0,0.0,0.0,0.0,0.0,1e+12,0.0,0.0,0.0,0.0,0.0,0.0,1e+12,0.0,0.0,0.0,0.0,0.0,0.0,0.001,-0.00039064320804,0.0136609998652,0.0,0.0,0.0,-0.00028716582198,0.0,0.0,0.0,0.0,0.0,0.0,0.0,0.0,0.0,0.0,0.0,0.0,0.0,0.0,0.0,0.0,0.0,0.0,0.0,0.0,0.0,0.0,0.0,0.0,0.0,0.0,0.0,0.0,0.0,0.0,0.0,0.0,0.0,0.0,0.0,0.0
1757175000000,13196,1757175000000,pioneer/odom,pioneer/base_link,0.104467563099,8.89582834257,0.1148386759,0.324829731413,0.174275753106,0.744018598646,0.557270071275,1e-05,0.0,0.0,0.0,0.0,0.0,0.0,1e-05,0.0,0.0,0.0,0.0,0.0,0.0,1e+12,0.0,0.0,0.0,0.0,0.0,0.0,1e+12,0.0,0.0,0.0,0.0,0.0,0.0,1e+12,0.0,0.0,0.0,0.0,0.0,0.0,0.001,-0.000560759787678,0.0152989613195,0.0,0.0,0.0,0.00054365246559,0.0,0.0,0.0,0.0,0.0,0.0,0.0,0.0,0.0,0.0,0.0,0.0,0.0,0.0,0.0,0.0,0.0,0.0,0.0,0.0,0.0,0.0,0.0,0.0,0.0,0.0,0.0,0.0,0.0,0.0,0.0,0.0,0.0,0.0,0.0,0.0
1757185000000,13197,1757185000000,pioneer/odom,pioneer/base_link,0.104309962893,8.89579412993,0.114643799939,0.324402624984,0.173790400999,0.74426648783,0.55733941949,1e-05,0.0,0.0,0.0,0.0,0.0,0.0,1e-05,0.0,0.0,0.0,0.0,0.0,0.0,1e+12,0.0,0.0,0.0,0.0,0.0,0.0,1e+12,0.0,0.0,0.0,0.0,0.0,0.0,1e+12,0.0,0.0,0.0,0.0,0.0,0.0,0.001,-0.000592155776841,0.016721263432,0.0,0.0,0.0,0.000521628444099,0.0,0.0,0.0,0.0,0.0,0.0,0.0,0.0,0.0,0.0,0.0,0.0,0.0,0.0,0.0,0.0,0.0,0.0,0.0,0.0,0.0,0.0,0.0,0.0,0.0,0.0,0.0,0.0,0.0,0.0,0.0,0.0,0.0,0.0,0.0,0.0
1757195000000,13198,1757195000000,pioneer/odom,pioneer/base_link,0.104139200643,8.89575767228,0.114430933471,0.323936873284,0.173260369229,0.744535282373,0.557416325455,1e-05,0.0,0.0,0.0,0.0,0.0,0.0,1e-05,0.0,0.0,0.0,0.0,0.0,0.0,1e+12,0.0,0.0,0.0,0.0,0.0,0.0,1e+12,0.0,0.0,0.0,0.0,0.0,0.0,1e+12,0.0,0.0,0.0,0.0,0.0,0.0,0.001,-0.000544609540286,0.018006710808,0.0,0.0,0.0,-9.25966481627e-06,0.0,0.0,0.0,0.0,0.0,0.0,0.0,0.0,0.0,0.0,0.0,0.0,0.0,0.0,0.0,0.0,0.0,0.0,0.0,0.0,0.0,0.0,0.0,0.0,0.0,0.0,0.0,0.0,0.0,0.0,0.0,0.0,0.0,0.0,0.0,0.0
1757205000000,13199,1757205000000,pioneer/odom,pioneer/base_link,0.10395590435,8.89571941274,0.114200154727,0.323432931764,0.172685695097,0.744824088353,0.557501450015,1e-05,0.0,0.0,0.0,0.0,0.0,0.0,1e-05,0.0,0.0,0.0,0.0,0.0,0.0,1e+12,0.0,0.0,0.0,0.0,0.0,0.0,1e+12,0.0,0.0,0.0,0.0,0.0,0.0,1e+12,0.0,0.0,0.0,0.0,0.0,0.0,0.001,-0.000497721630358,0.0192747630383,0.0,0.0,0.0,-0.000519516434648,0.0,0.0,0.0,0.0,0.0,0.0,0.0,0.0,0.0,0.0,0.0,0.0,0.0,0.0,0.0,0.0,0.0,0.0,0.0,0.0,0.0,0.0,0.0,0.0,0.0,0.0,0.0,0.0,0.0,0.0,0.0,0.0,0.0,0.0,0.0,0.0
1757215000000,13200,1757215000000,pioneer/odom,pioneer/base_link,0.103759600411,8.89567879397,0.113951503912,0.322890749162,0.172067521192,0.745133499049,0.557593401011,1e-05,0.0,0.0,0.0,0.0,0.0,0.0,1e-05,0.0,0.0,0.0,0.0,0.0,0.0,1e+12,0.0,0.0,0.0,0.0,0.0,0.0,1e+12,0.0,0.0,0.0,0.0,0.0,0.0,1e+12,0.0,0.0,0.0,0.0,0.0,0.0,0.001,-0.000614168016881,0.0208059452716,0.0,0.0,0.0,0.000236664877073,0.0,0.0,0.0,0.0,0.0,0.0,0.0,0.0,0.0,0.0,0.0,0.0,0.0,0.0,0.0,0.0,0.0,0.0,0.0,0.0,0.0,0.0,0.0,0.0,0.0,0.0,0.0,0.0,0.0,0.0,0.0,0.0,0.0,0.0,0.0,0.0
1757225000000,13201,1757225000000,pioneer/odom,pioneer/base_link,0.104846095118,8.89610488249,0.11448792567,0.322701459407,0.171386152573,0.745177598292,0.557853835522,1e-05,0.0,0.0,0.0,0.0,0.0,0.0,1e-05,0.0,0.0,0.0,0.0,0.0,0.0,1e+12,0.0,0.0,0.0,0.0,0.0,0.0,1e+12,0.0,0.0,0.0,0.0,0.0,0.0,1e+12,0.0,0.0,0.0,0.0,0.0,0.0,0.001,-0.00302585852305,-0.001821364126,0.0,0.0,0.0,-0.0108457414824,0.0,0.0,0.0,0.0,0.0,0.0,0.0,0.0,0.0,0.0,0.0,0.0,0.0,0.0,0.0,0.0,0.0,0.0,0.0,0.0,0.0,0.0,0.0,0.0,0.0,0.0,0.0,0.0,0.0,0.0,0.0,0.0,0.0,0.0,0.0,0.0
1757235000000,13202,1757235000000,pioneer/odom,pioneer/base_link,0.105892739757,8.89611216363,0.115467500757,0.322815761975,0.170822006443,0.745185410769,0.557950293047,1e-05,0.0,0.0,0.0,0.0,0.0,0.0,1e-05,0.0,0.0,0.0,0.0,0.0,0.0,1e+12,0.0,0.0,0.0,0.0,0.0,0.0,1e+12,0.0,0.0,0.0,0.0,0.0,0.0,1e+12,0.0,0.0,0.0,0.0,0.0,0.0,0.001,-0.0246359129264,-0.0276690852253,0.0,0.0,0.0,-0.0109735969697,0.0,0.0,0.0,0.0,0.0,0.0,0.0,0.0,0.0,0.0,0.0,0.0,0.0,0.0,0.0,0.0,0.0,0.0,0.0,0.0,0.0,0.0,0.0,0.0,0.0,0.0,0.0,0.0,0.0,0.0,0.0,0.0,0.0,0.0,0.0,0.0
1757245000000,13203,1757245000000,pioneer/odom,pioneer/base_link,0.106200674017,8.895841779,0.11566124284,0.322902995985,0.170462227401,0.745277400782,0.557886977888,1e-05,0.0,0.0,0.0,0.0,0.0,0.0,1e-05,0.0,0.0,0.0,0.0,0.0,0.0,1e+12,0.0,0.0,0.0,0.0,0.0,0.0,1e+12,0.0,0.0,0.0,0.0,0.0,0.0,1e+12,0.0,0.0,0.0,0.0,0.0,0.0,0.001,-0.0390067034028,-0.024768557259,0.0,0.0,0.0,-0.00273854035922,0.0,0.0,0.0,0.0,0.0,0.0,0.0,0.0,0.0,0.0,0.0,0.0,0.0,0.0,0.0,0.0,0.0,0.0,0.0,0.0,0.0,0.0,0.0,0.0,0.0,0.0,0.0,0.0,0.0,0.0,0.0,0.0,0.0,0.0,0.0,0.0
1757255000000,13204,1757255000000,pioneer/odom,pioneer/base_link,0.106503018255,8.89549308788,0.11569493615,0.323151894519,0.170219535694,0.745315245938,0.557766390982,1e-05,0.0,0.0,0.0,0.0,0.0,0.0,1e-05,0.0,0.0,0.0,0.0,0.0,0.0,1e+12,0.0,0.0,0.0,0.0,0.0,0.0,1e+12,0.0,0.0,0.0,0.0,0.0,0.0,1e+12,0.0,0.0,0.0,0.0,0.0,0.0,0.001,-0.0436382028125,-0.0235290333645,0.0,0.0,0.0,0.000124054842257,0.0,0.0,0.0,0.0,0.0,0.0,0.0,0.0,0.0,0.0,0.0,0.0,0.0,0.0,0.0,0.0,0.0,0.0,0.0,0.0,0.0,0.0,0.0,0.0,0.0,0.0,0.0,0.0,0.0,0.0,0.0,0.0,0.0,0.0,0.0,0.0
1757265000000,13205,1757265000000,pioneer/odom,pioneer/base_link,0.106804755693,8.89512111913,0.115674042057,0.323586406859,0.170103350915,0.745281954549,0.557594382618,1e-05,0.0,0.0,0.0,0.0,0.0,0.0,1e-05,0.0,0.0,0.0,0.0,0.0,0.0,1e+12,0.0,0.0,0.0,0.0,0.0,0.0,1e+12,0.0,0.0,0.0,0.0,0.0,0.0,1e+12,0.0,0.0,0.0,0.0,0.0,0.0,0.001,-0.0432909248342,-0.0225865181675,0.0,0.0,0.0,0.000462515752051,0.0,0.0,0.0,0.0,0.0,0.0,0.0,0.0,0.0,0.0,0.0,0.0,0.0,0.0,0.0,0.0,0.0,0.0,0.0,0.0,0.0,0.0,0.0,0.0,0.0,0.0,0.0,0.0,0.0,0.0,0.0,0.0,0.0,0.0,0.0,0.0
1757275000000,13206,1757275000000,pioneer/odom,pioneer/base_link,0.107108331971,8.89477345363,0.115523207886,0.324191931566,0.170101228107,0.745176763735,0.557383848432,1e-05,0.0,0.0,0.0,0.0,0.0,0.0,1e-05,0.0,0.0,0.0,0.0,0.0,0.0,1e+12,0.0,0.0,0.0,0.0,0.0,0.0,1e+12,0.0,0.0,0.0,0.0,0.0,0.0,1e+12,0.0,0.0,0.0,0.0,0.0,0.0,0.001,-0.037241726806,-0.0241928990514,0.0,0.0,0.0,-0.00238887041468,0.0,0.0,0.0,0.0,0.0,0.0,0.0,0.0,0.0,0.0,0.0,0.0,0.0,0.0,0.0,0.0,0.0,0.0,0.0,0.0,0.0,0.0,0.0,0.0,0.0,0.0,0.0,0.0,0.0,0.0,0.0,0.0,0.0,0.0,0.0,0.0
1757285000000,13207,1757285000000,pioneer/odom,pioneer/base_link,0.107402075049,8.89436692871,0.115607085281,0.325041664056,0.170264555477,0.744980901099,0.557100847939,1e-05,0.0,0.0,0.0,0.0,0.0,0.0,1e-05,0.0,0.0,0.0,0.0,0.0,0.0,1e+12,0.0,0.0,0.0,0.0,0.0,0.0,1e+12,0.0,0.0,0.0,0.0,0.0,0.0,1e+12,0.0,0.0,0.0,0.0,0.0,0.0,0.001,-0.0520208382345,-0.0174336854783,0.0,0.0,0.0,0.00628594354562,0.0,0.0,0.0,0.0,0.0,0.0,0.0,0.0,0.0,0.0,0.0,0.0,0.0,0.0,0.0,0.0,0.0,0.0,0.0,0.0,0.0,0.0,0.0,0.0,0.0,0.0,0.0,0.0,0.0,0.0,0.0,0.0,0.0,0.0,0.0,0.0
1757295000000,13208,1757295000000,pioneer/odom,pioneer/base_link,0.10760247422,8.89412455925,0.115761715507,0.325859874482,0.170485382015,0.74479357365,0.556805719593,1e-05,0.0,0.0,0.0,0.0,0.0,0.0,1e-05,0.0,0.0,0.0,0.0,0.0,0.0,1e+12,0.0,0.0,0.0,0.0,0.0,0.0,1e+12,0.0,0.0,0.0,0.0,0.0,0.0,1e+12,0.0,0.0,0.0,0.0,0.0,0.0,0.001,-0.0112985289961,-0.0133204185967,0.0,0.0,0.0,0.0122560347542,0.0,0.0,0.0,0.0,0.0,0.0,0.0,0.0,0.0,0.0,0.0,0.0,0.0,0.0,0.0,0.0,0.0,0.0,0.0,0.0,0.0,0.0,0.0,0.0,0.0,0.0,0.0,0.0,0.0,0.0,0.0,0.0,0.0,0.0,0.0,0.0
1757305000000,13209,1757305000000,pioneer/odom,pioneer/base_link,0.107740664118,8.89405421071,0.116105325586,0.326486983049,0.170744040701,0.744633404893,0.556573278896,1e-05,0.0,0.0,0.0,0.0,0.0,0.0,1e-05,0.0,0.0,0.0,0.0,0.0,0.0,1e+12,0.0,0.0,0.0,0.0,0.0,0.0,1e+12,0.0,0.0,0.0,0.0,0.0,0.0,1e+12,0.0,0.0,0.0,0.0,0.0,0.0,0.001,-0.0073975958848,-0.0114283035587,0.0,0.0,0.0,0.0122309638514,0.0,0.0,0.0,0.0,0.0,0.0,0.0,0.0,0.0,0.0,0.0,0.0,0.0,0.0,0.0,0.0,0.0,0.0,0.0,0.0,0.0,0.0,0.0,0.0,0.0,0.0,0.0,0.0,0.0,0.0,0.0,0.0,0.0,0.0,0.0,0.0
1757315000000,13210,1757315000000,pioneer/odom,pioneer/base_link,0.107855758346,8.89401558965,0.116346386486,0.326962384344,0.171047860367,0.744482631549,0.556402588069,1e-05,0.0,0.0,0.0,0.0,0.0,0.0,1e-05,0.0,0.0,0.0,0.0,0.0,0.0,1e+12,0.0,0.0,0.0,0.0,0.0,0.0,1e+12,0.0,0.0,0.0,0.0,0.0,0.0,1e+12,0.0,0.0,0.0,0.0,0.0,0.0,0.001,-0.00453220770629,-0.0100288397259,0.0,0.0,0.0,0.0122535442571,0.0,0.0,0.0,0.0,0.0,0.0,0.0,0.0,0.0,0.0,0.0,0.0,0.0,0.0,0.0,0.0,0.0,0.0,0.0,0.0,0.0,0.0,0.0,0.0,0.0,0.0,0.0,0.0,0.0,0.0,0.0,0.0,0.0,0.0,0.0,0.0
1757325000000,13211,1757325000000,pioneer/odom,pioneer/base_link,0.107946935922,8.89400980191,0.116511561331,0.327281899214,0.171398335417,0.744341491616,0.556295706367,1e-05,0.0,0.0,0.0,0.0,0.0,0.0,1e-05,0.0,0.0,0.0,0.0,0.0,0.0,1e+12,0.0,0.0,0.0,0.0,0.0,0.0,1e+12,0.0,0.0,0.0,0.0,0.0,0.0,1e+12,0.0,0.0,0.0,0.0,0.0,0.0,0.001,-0.000224610670583,-0.00793420317141,0.0,0.0,0.0,0.0121533274356,0.0,0.0,0.0,0.0,0.0,0.0,0.0,0.0,0.0,0.0,0.0,0.0,0.0,0.0,0.0,0.0,0.0,0.0,0.0,0.0,0.0,0.0,0.0,0.0,0.0,0.0,0.0,0.0,0.0,0.0,0.0,0.0,0.0,0.0,0.0,0.0
1757335000000,13212,1757335000000,pioneer/odom,pioneer/base_link,0.108014821602,8.89403595353,0.116574432223,0.327450393977,0.171794316304,0.744209630634,0.556250822957,1e-05,0.0,0.0,0.0,0.0,0.0,0.0,1e-05,0.0,0.0,0.0,0.0,0.0,0.0,1e+12,0.0,0.0,0.0,0.0,0.0,0.0,1e+12,0.0,0.0,0.0,0.0,0.0,0.0,1e+12,0.0,0.0,0.0,0.0,0.0,0.0,0.001,0.00300576128237,-0.0063515165485,0.0,0.0,0.0,0.0121359481429,0.0,0.0,0.0,0.0,0.0,0.0,0.0,0.0,0.0,0.0,0.0,0.0,0.0,0.0,0.0,0.0,0.0,0.0,0.0,0.0,0.0,0.0,0.0,0.0,0.0,0.0,0.0,0.0,0.0,0.0,0.0,0.0,0.0,0.0,0.0,0.0
1757345000000,13213,1757345000000,pioneer/odom,pioneer/base_link,0.108059364091,8.89409406351,0.116535061799,0.327468014361,0.172235941836,0.744086936914,0.556268020135,1e-05,0.0,0.0,0.0,0.0,0.0,0.0,1e-05,0.0,0.0,0.0,0.0,0.0,0.0,1e+12,0.0,0.0,0.0,0.0,0.0,0.0,1e+12,0.0,0.0,0.0,0.0,0.0,0.0,1e+12,0.0,0.0,0.0,0.0,0.0,0.0,0.001,0.00623474876023,-0.0047617395139,0.0,0.0,0.0,0.0121112951565,0.0,0.0,0.0,0.0,0.0,0.0,0.0,0.0,0.0,0.0,0.0,0.0,0.0,0.0,0.0,0.0,0.0,0.0,0.0,0.0,0.0,0.0,0.0,0.0,0.0,0.0,0.0,0.0,0.0,0.0,0.0,0.0,0.0,0.0,0.0,0.0
1757355000000,13214,1757355000000,pioneer/odom,pioneer/base_link,0.108080641781,8.8941852558,0.116420917934,0.327331857584,0.172723248003,0.743972746203,0.556349788818,1e-05,0.0,0.0,0.0,0.0,0.0,0.0,1e-05,0.0,0.0,0.0,0.0,0.0,0.0,1e+12,0.0,0.0,0.0,0.0,0.0,0.0,1e+12,0.0,0.0,0.0,0.0,0.0,0.0,1e+12,0.0,0.0,0.0,0.0,0.0,0.0,0.001,0.0105440282164,-0.00274046705527,0.0,0.0,0.0,0.0116813074695,0.0,0.0,0.0,0.0,0.0,0.0,0.0,0.0,0.0,0.0,0.0,0.0,0.0,0.0,0.0,0.0,0.0,0.0,0.0,0.0,0.0,0.0,0.0,0.0,0.0,0.0,0.0,0.0,0.0,0.0,0.0,0.0,0.0,0.0,0.0,0.0
1757365000000,13215,1757365000000,pioneer/odom,pioneer/base_link,0.108078862775,8.89430794064,0.116195558726,0.327046349288,0.173256029412,0.743867223962,0.556493114787,1e-05,0.0,0.0,0.0,0.0,0.0,0.0,1e-05,0.0,0.0,0.0,0.0,0.0,0.0,1e+12,0.0,0.0,0.0,0.0,0.0,0.0,1e+12,0.0,0.0,0.0,0.0,0.0,0.0,1e+12,0.0,0.0,0.0,0.0,0.0,0.0,0.001,0.0133907058239,-0.00133053963456,0.0,0.0,0.0,0.0116723561222,0.0,0.0,0.0,0.0,0.0,0.0,0.0,0.0,0.0,0.0,0.0,0.0,0.0,0.0,0.0,0.0,0.0,0.0,0.0,0.0,0.0,0.0,0.0,0.0,0.0,0.0,0.0,0.0,0.0,0.0,0.0,0.0,0.0,0.0,0.0,0.0
1757375000000,13216,1757375000000,pioneer/odom,pioneer/base_link,0.108053183357,8.89446325638,0.115894211766,0.326605186865,0.17383618234,0.743770449163,0.55670059509,1e-05,0.0,0.0,0.0,0.0,0.0,0.0,1e-05,0.0,0.0,0.0,0.0,0.0,0.0,1e+12,0.0,0.0,0.0,0.0,0.0,0.0,1e+12,0.0,0.0,0.0,0.0,0.0,0.0,1e+12,0.0,0.0,0.0,0.0,0.0,0.0,0.001,0.0173001522976,0.00058982918582,0.0,0.0,0.0,0.0115651841655,0.0,0.0,0.0,0.0,0.0,0.0,0.0,0.0,0.0,0.0,0.0,0.0,0.0,0.0,0.0,0.0,0.0,0.0,0.0,0.0,0.0,0.0,0.0,0.0,0.0,0.0,0.0,0.0,0.0,0.0,0.0,0.0,0.0,0.0,0.0,0.0
1757385000000,13217,1757385000000,pioneer/odom,pioneer/base_link,0.108004673233,8.89464967323,0.11548121773,0.326014260873,0.174462072225,0.743681697388,0.556969676044,1e-05,0.0,0.0,0.0,0.0,0.0,0.0,1e-05,0.0,0.0,0.0,0.0,0.0,0.0,1e+12,0.0,0.0,0.0,0.0,0.0,0.0,1e+12,0.0,0.0,0.0,0.0,0.0,0.0,1e+12,0.0,0.0,0.0,0.0,0.0,0.0,0.001,0.0204593164891,0.00214976252728,0.0,0.0,0.0,0.0115100156959,0.0,0.0,0.0,0.0,0.0,0.0,0.0,0.0,0.0,0.0,0.0,0.0,0.0,0.0,0.0,0.0,0.0,0.0,0.0,0.0,0.0,0.0,0.0,0.0,0.0,0.0,0.0,0.0,0.0,0.0,0.0,0.0,0.0,0.0,0.0,0.0
1757395000000,13218,1757395000000,pioneer/odom,pioneer/base_link,0.107906659236,8.89493151897,0.115113347036,0.325291941986,0.175105724768,0.743615773452,0.557277954979,1e-05,0.0,0.0,0.0,0.0,0.0,0.0,1e-05,0.0,0.0,0.0,0.0,0.0,0.0,1e+12,0.0,0.0,0.0,0.0,0.0,0.0,1e+12,0.0,0.0,0.0,0.0,0.0,0.0,1e+12,0.0,0.0,0.0,0.0,0.0,0.0,0.001,0.0600313054032,0.0124708883949,0.0,0.0,0.0,0.0250544719185,0.0,0.0,0.0,0.0,0.0,0.0,0.0,0.0,0.0,0.0,0.0,0.0,0.0,0.0,0.0,0.0,0.0,0.0,0.0,0.0,0.0,0.0,0.0,0.0,0.0,0.0,0.0,0.0,0.0,0.0,0.0,0.0,0.0,0.0,0.0,0.0
1757405000000,13219,1757405000000,pioneer/odom,pioneer/base_link,0.107617702707,8.89561408806,0.115090149689,0.324654338886,0.175578870753,0.743641603815,0.557466398506,1e-05,0.0,0.0,0.0,0.0,0.0,0.0,1e-05,0.0,0.0,0.0,0.0,0.0,0.0,1e+12,0.0,0.0,0.0,0.0,0.0,0.0,1e+12,0.0,0.0,0.0,0.0,0.0,0.0,1e+12,0.0,0.0,0.0,0.0,0.0,0.0,0.001,0.0820989147066,0.020133902507,0.0,0.0,0.0,0.0303969591569,0.0,0.0,0.0,0.0,0.0,0.0,0.0,0.0,0.0,0.0,0.0,0.0,0.0,0.0,0.0,0.0,0.0,0.0,0.0,0.0,0.0,0.0,0.0,0.0,0.0,0.0,0.0,0.0,0.0,0.0,0.0,0.0,0.0,0.0,0.0,0.0
1757415000000,13220,1757415000000,pioneer/odom,pioneer/base_link,0.107210443868,8.89649879609,0.115044609503,0.324112551492,0.175902770527,0.743722441319,0.557571699035,1e-05,0.0,0.0,0.0,0.0,0.0,0.0,1e-05,0.0,0.0,0.0,0.0,0.0,0.0,1e+12,0.0,0.0,0.0,0.0,0.0,0.0,1e+12,0.0,0.0,0.0,0.0,0.0,0.0,1e+12,0.0,0.0,0.0,0.0,0.0,0.0,0.001,0.104208544188,0.0281539880739,0.0,0.0,0.0,0.0358572849524,0.0,0.0,0.0,0.0,0.0,0.0,0.0,0.0,0.0,0.0,0.0,0.0,0.0,0.0,0.0,0.0,0.0,0.0,0.0,0.0,0.0,0.0,0.0,0.0,0.0,0.0,0.0,0.0,0.0,0.0,0.0,0.0,0.0,0.0,0.0,0.0
1757425000000,13221,1757425000000,pioneer/odom,pioneer/base_link,0.107127246274,8.89721175069,0.115044499623,0.323766800574,0.176016690688,0.743789205149,0.557647560516,1e-05,0.0,0.0,0.0,0.0,0.0,0.0,1e-05,0.0,0.0,0.0,0.0,0.0,0.0,1e+12,0.0,0.0,0.0,0.0,0.0,0.0,1e+12,0.0,0.0,0.0,0.0,0.0,0.0,1e+12,0.0,0.0,0.0,0.0,0.0,0.0,0.001,0.0352995498938,-0.0215671563416,0.0,0.0,0.0,0.00566229046986,0.0,0.0,0.0,0.0,0.0,0.0,0.0,0.0,0.0,0.0,0.0,0.0,0.0,0.0,0.0,0.0,0.0,0.0,0.0,0.0,0.0,0.0,0.0,0.0,0.0,0.0,0.0,0.0,0.0,0.0,0.0,0.0,0.0,0.0,0.0,0.0
1757435000000,13222,1757435000000,pioneer/odom,pioneer/base_link,0.107178857105,8.89764695323,0.114963763899,0.323653347263,0.175981047161,0.743850522283,0.557642880655,1e-05,0.0,0.0,0.0,0.0,0.0,0.0,1e-05,0.0,0.0,0.0,0.0,0.0,0.0,1e+12,0.0,0.0,0.0,0.0,0.0,0.0,1e+12,0.0,0.0,0.0,0.0,0.0,0.0,1e+12,0.0,0.0,0.0,0.0,0.0,0.0,0.001,0.0521610111152,0.00265470811862,0.0,0.0,0.0,0.0148077685238,0.0,0.0,0.0,0.0,0.0,0.0,0.0,0.0,0.0,0.0,0.0,0.0,0.0,0.0,0.0,0.0,0.0,0.0,0.0,0.0,0.0,0.0,0.0,0.0,0.0,0.0,0.0,0.0,0.0,0.0,0.0,0.0,0.0,0.0,0.0,0.0
1757445000000,13223,1757445000000,pioneer/odom,pioneer/base_link,0.107025188829,8.89815384526,0.114953750999,0.323755341678,0.175849614039,0.743905659945,0.557551577057,1e-05,0.0,0.0,0.0,0.0,0.0,0.0,1e-05,0.0,0.0,0.0,0.0,0.0,0.0,1e+12,0.0,0.0,0.0,0.0,0.0,0.0,1e+12,0.0,0.0,0.0,0.0,0.0,0.0,1e+12,0.0,0.0,0.0,0.0,0.0,0.0,0.001,0.0559291633112,0.0159682286258,0.0,0.0,0.0,0.00652354426714,0.0,0.0,0.0,0.0,0.0,0.0,0.0,0.0,0.0,0.0,0.0,0.0,0.0,0.0,0.0,0.0,0.0,0.0,0.0,0.0,0.0,0.0,0.0,0.0,0.0,0.0,0.0,0.0,0.0,0.0,0.0,0.0,0.0,0.0,0.0,0.0
1757455000000,13224,1757455000000,pioneer/odom,pioneer/base_link,0.106720834131,8.89875731453,0.114959165263,0.324033147469,0.175623281407,0.74394402369,0.557410326407,1e-05,0.0,0.0,0.0,0.0,0.0,0.0,1e-05,0.0,0.0,0.0,0.0,0.0,0.0,1e+12,0.0,0.0,0.0,0.0,0.0,0.0,1e+12,0.0,0.0,0.0,0.0,0.0,0.0,1e+12,0.0,0.0,0.0,0.0,0.0,0.0,0.001,0.0728481139247,0.026063668115,0.0,0.0,0.0,0.000140124685884,0.0,0.0,0.0,0.0,0.0,0.0,0.0,0.0,0.0,0.0,0.0,0.0,0.0,0.0,0.0,0.0,0.0,0.0,0.0,0.0,0.0,0.0,0.0,0.0,0.0,0.0,0.0,0.0,0.0,0.0,0.0,0.0,0.0,0.0,0.0,0.0
1757465000000,13225,1757465000000,pioneer/odom,pioneer/base_link,0.106329003568,8.89950853112,0.114965667018,0.32444295971,0.175263723607,0.744001863096,0.557207879334,1e-05,0.0,0.0,0.0,0.0,0.0,0.0,1e-05,0.0,0.0,0.0,0.0,0.0,0.0,1e+12,0.0,0.0,0.0,0.0,0.0,0.0,1e+12,0.0,0.0,0.0,0.0,0.0,0.0,1e+12,0.0,0.0,0.0,0.0,0.0,0.0,0.001,0.0889543370999,0.028115751651,0.0,0.0,0.0,-0.000100084101068,0.0,0.0,0.0,0.0,0.0,0.0,0.0,0.0,0.0,0.0,0.0,0.0,0.0,0.0,0.0,0.0,0.0,0.0,0.0,0.0,0.0,0.0,0.0,0.0,0.0,0.0,0.0,0.0,0.0,0.0,0.0,0.0,0.0,0.0,0.0,0.0
1757475000000,13226,1757475000000,pioneer/odom,pioneer/base_link,0.105910491651,8.90042034281,0.114967920614,0.324987283072,0.174763011945,0.744069924353,0.556957002982,1e-05,0.0,0.0,0.0,0.0,0.0,0.0,1e-05,0.0,0.0,0.0,0.0,0.0,0.0,1e+12,0.0,0.0,0.0,0.0,0.0,0.0,1e+12,0.0,0.0,0.0,0.0,0.0,0.0,1e+12,0.0,0.0,0.0,0.0,0.0,0.0,0.001,0.104462081159,0.030355012777,0.0,0.0,0.0,-0.00592481719423,0.0,0.0,0.0,0.0,0.0,0.0,0.0,0.0,0.0,0.0,0.0,0.0,0.0,0.0,0.0,0.0,0.0,0.0,0.0,0.0,0.0,0.0,0.0,0.0,0.0,0.0,0.0,0.0,0.0,0.0,0.0,0.0,0.0,0.0,0.0,0.0
1757485000000,13227,1757485000000,pioneer/odom,pioneer/base_link,0.105865351687,8.90068183632,0.115142643765,0.325292545582,0.174293473488,0.744155792018,0.556811190705,1e-05,0.0,0.0,0.0,0.0,0.0,0.0,1e-05,0.0,0.0,0.0,0.0,0.0,0.0,1e+12,0.0,0.0,0.0,0.0,0.0,0.0,1e+12,0.0,0.0,0.0,0.0,0.0,0.0,1e+12,0.0,0.0,0.0,0.0,0.0,0.0,0.001,-0.00713824276081,-0.000219910578332,0.0,0.0,0.0,-0.0174104652481,0.0,0.0,0.0,0.0,0.0,0.0,0.0,0.0,0.0,0.0,0.0,0.0,0.0,0.0,0.0,0.0,0.0,0.0,0.0,0.0,0.0,0.0,0.0,0.0,0.0,0.0,0.0,0.0,0.0,0.0,0.0,0.0,0.0,0.0,0.0,0.0
1757495000000,13228,1757495000000,pioneer/odom,pioneer/base_link,0.105864764581,8.90063318594,0.115236724084,0.325387897965,0.173915570653,0.74421917773,0.556788923777,1e-05,0.0,0.0,0.0,0.0,0.0,0.0,1e-05,0.0,0.0,0.0,0.0,0.0,0.0,1e+12,0.0,0.0,0.0,0.0,0.0,0.0,1e+12,0.0,0.0,0.0,0.0,0.0,0.0,1e+12,0.0,0.0,0.0,0.0,0.0,0.0,0.001,-0.00284362250801,0.00184113007981,0.0,0.0,0.0,-0.0176400638284,0.0,0.0,0.0,0.0,0.0,0.0,0.0,0.0,0.0,0.0,0.0,0.0,0.0,0.0,0.0,0.0,0.0,0.0,0.0,0.0,0.0,0.0,0.0,0.0,0.0,0.0,0.0,0.0,0.0,0.0,0.0,0.0,0.0,0.0,0.0,0.0
1757505000000,13229,1757505000000,pioneer/odom,pioneer/base_link,0.105841170741,8.90061644935,0.115228094748,0.325331679612,0.173583288713,0.744291020717,0.556829432232,1e-05,0.0,0.0,0.0,0.0,0.0,0.0,1e-05,0.0,0.0,0.0,0.0,0.0,0.0,1e+12,0.0,0.0,0.0,0.0,0.0,0.0,1e+12,0.0,0.0,0.0,0.0,0.0,0.0,1e+12,0.0,0.0,0.0,0.0,0.0,0.0,0.001,0.000379293145532,0.00338911415935,0.0,0.0,0.0,-0.0177725339015,0.0,0.0,0.0,0.0,0.0,0.0,0.0,0.0,0.0,0.0,0.0,0.0,0.0,0.0,0.0,0.0,0.0,0.0,0.0,0.0,0.0,0.0,0.0,0.0,0.0,0.0,0.0,0.0,0.0,0.0,0.0,0.0,0.0,0.0,0.0,0.0
1757515000000,13230,1757515000000,pioneer/odom,pioneer/base_link,0.105794610422,8.90063163564,0.11511664346,0.325123896784,0.173296489206,0.744371417552,0.556932645209,1e-05,0.0,0.0,0.0,0.0,0.0,0.0,1e-05,0.0,0.0,0.0,0.0,0.0,0.0,1e+12,0.0,0.0,0.0,0.0,0.0,0.0,1e+12,0.0,0.0,0.0,0.0,0.0,0.0,1e+12,0.0,0.0,0.0,0.0,0.0,0.0,0.001,0.00360171709654,0.00493532696977,0.0,0.0,0.0,-0.0179081591292,0.0,0.0,0.0,0.0,0.0,0.0,0.0,0.0,0.0,0.0,0.0,0.0,0.0,0.0,0.0,0.0,0.0,0.0,0.0,0.0,0.0,0.0,0.0,0.0,0.0,0.0,0.0,0.0,0.0,0.0,0.0,0.0,0.0,0.0,0.0,0.0
1757525000000,13231,1757525000000,pioneer/odom,pioneer/base_link,0.10577045258,8.90063960355,0.115061577163,0.324855395965,0.173087888464,0.744439591993,0.557063056084,1e-05,0.0,0.0,0.0,0.0,0.0,0.0,1e-05,0.0,0.0,0.0,0.0,0.0,0.0,1e+12,0.0,0.0,0.0,0.0,0.0,0.0,1e+12,0.0,0.0,0.0,0.0,0.0,0.0,1e+12,0.0,0.0,0.0,0.0,0.0,0.0,0.001,-0.0062854458705,-0.00487428850443,0.0,0.0,0.0,-0.0129721933492,0.0,0.0,0.0,0.0,0.0,0.0,0.0,0.0,0.0,0.0,0.0,0.0,0.0,0.0,0.0,0.0,0.0,0.0,0.0,0.0,0.0,0.0,0.0,0.0,0.0,0.0,0.0,0.0,0.0,0.0,0.0,0.0,0.0,0.0,0.0,0.0
1757535000000,13232,1757535000000,pioneer/odom,pioneer/base_link,0.105902681255,8.90048285933,0.115047610083,0.324726174331,0.173009531042,0.744465026537,0.557128744668,1e-05,0.0,0.0,0.0,0.0,0.0,0.0,1e-05,0.0,0.0,0.0,0.0,0.0,0.0,1e+12,0.0,0.0,0.0,0.0,0.0,0.0,1e+12,0.0,0.0,0.0,0.0,0.0,0.0,1e+12,0.0,0.0,0.0,0.0,0.0,0.0,0.001,-0.0257751545498,-0.0139052531605,0.0,0.0,0.0,-0.00350156681926,0.0,0.0,0.0,0.0,0.0,0.0,0.0,0.0,0.0,0.0,0.0,0.0,0.0,0.0,0.0,0.0,0.0,0.0,0.0,0.0,0.0,0.0,0.0,0.0,0.0,0.0,0.0,0.0,0.0,0.0,0.0,0.0,0.0,0.0,0.0,0.0
1757545000000,13233,1757545000000,pioneer/odom,pioneer/base_link,0.106093970225,8.90011958715,0.115090485167,0.324796500544,0.173087423946,0.744437065377,0.557100917786,1e-05,0.0,0.0,0.0,0.0,0.0,0.0,1e-05,0.0,0.0,0.0,0.0,0.0,0.0,1e+12,0.0,0.0,0.0,0.0,0.0,0.0,1e+12,0.0,0.0,0.0,0.0,0.0,0.0,1e+12,0.0,0.0,0.0,0.0,0.0,0.0,0.001,-0.0490697627105,-0.0113464015945,0.0,0.0,0.0,0.00915483610384,0.0,0.0,0.0,0.0,0.0,0.0,0.0,0.0,0.0,0.0,0.0,0.0,0.0,0.0,0.0,0.0,0.0,0.0,0.0,0.0,0.0,0.0,0.0,0.0,0.0,0.0,0.0,0.0,0.0,0.0,0.0,0.0,0.0,0.0,0.0,0.0
1757555000000,13234,1757555000000,pioneer/odom,pioneer/base_link,0.106264902174,8.89966685925,0.115066856073,0.325020527048,0.173282840544,0.744379940128,0.556985833666,1e-05,0.0,0.0,0.0,0.0,0.0,0.0,1e-05,0.0,0.0,0.0,0.0,0.0,0.0,1e+12,0.0,0.0,0.0,0.0,0.0,0.0,1e+12,0.0,0.0,0.0,0.0,0.0,0.0,1e+12,0.0,0.0,0.0,0.0,0.0,0.0,0.001,-0.00601491232648,-0.00210437768672,0.0,0.0,0.0,0.0233396185869,0.0,0.0,0.0,0.0,0.0,0.0,0.0,0.0,0.0,0.0,0.0,0.0,0.0,0.0,0.0,0.0,0.0,0.0,0.0,0.0,0.0,0.0,0.0,0.0,0.0,0.0,0.0,0.0,0.0,0.0,0.0,0.0,0.0,0.0,0.0,0.0
1757565000000,13235,1757565000000,pioneer/odom,pioneer/base_link,0.106281434447,8.89963052021,0.115145020158,0.325187778332,0.173495098777,0.744350224556,0.556861834504,1e-05,0.0,0.0,0.0,0.0,0.0,0.0,1e-05,0.0,0.0,0.0,0.0,0.0,0.0,1e+12,0.0,0.0,0.0,0.0,0.0,0.0,1e+12,0.0,0.0,0.0,0.0,0.0,0.0,1e+12,0.0,0.0,0.0,0.0,0.0,0.0,0.001,-0.00254373141489,-0.000345880790559,0.0,0.0,0.0,0.0230644656159,0.0,0.0,0.0,0.0,0.0,0.0,0.0,0.0,0.0,0.0,0.0,0.0,0.0,0.0,0.0,0.0,0.0,0.0,0.0,0.0,0.0,0.0,0.0,0.0,0.0,0.0,0.0,0.0,0.0,0.0,0.0,0.0,0.0,0.0,0.0,0.0
1757575000000,13236,1757575000000,pioneer/odom,pioneer/base_link,0.10627404036,8.89962739402,0.115148466524,0.325198323864,0.17375397358,0.744329301668,0.55680292519,1e-05,0.0,0.0,0.0,0.0,0.0,0.0,1e-05,0.0,0.0,0.0,0.0,0.0,0.0,1e+12,0.0,0.0,0.0,0.0,0.0,0.0,1e+12,0.0,0.0,0.0,0.0,0.0,0.0,1e+12,0.0,0.0,0.0,0.0,0.0,0.0,0.001,0.00175850741905,0.00170470462717,0.0,0.0,0.0,0.0227884020779,0.0,0.0,0.0,0.0,0.0,0.0,0.0,0.0,0.0,0.0,0.0,0.0,0.0,0.0,0.0,0.0,0.0,0.0,0.0,0.0,0.0,0.0,0.0,0.0,0.0,0.0,0.0,0.0,0.0,0.0,0.0,0.0,0.0,0.0,0.0,0.0
1757585000000,13237,1757585000000,pioneer/odom,pioneer/base_link,0.106243732359,8.89965619492,0.115049067651,0.325057276929,0.174058089296,0.744316854451,0.556806940013,1e-05,0.0,0.0,0.0,0.0,0.0,0.0,1e-05,0.0,0.0,0.0,0.0,0.0,0.0,1e+12,0.0,0.0,0.0,0.0,0.0,0.0,1e+12,0.0,0.0,0.0,0.0,0.0,0.0,1e+12,0.0,0.0,0.0,0.0,0.0,0.0,0.001,0.0049782431513,0.00324479743,0.0,0.0,0.0,0.022600521042,0.0,0.0,0.0,0.0,0.0,0.0,0.0,0.0,0.0,0.0,0.0,0.0,0.0,0.0,0.0,0.0,0.0,0.0,0.0,0.0,0.0,0.0,0.0,0.0,0.0,0.0,0.0,0.0,0.0,0.0,0.0,0.0,0.0,0.0,0.0,0.0
1757595000000,13238,1757595000000,pioneer/odom,pioneer/base_link,0.106190529919,8.89971683817,0.114846753318,0.324764581719,0.174407474904,0.744312747937,0.556873892741,1e-05,0.0,0.0,0.0,0.0,0.0,0.0,1e-05,0.0,0.0,0.0,0.0,0.0,0.0,1e+12,0.0,0.0,0.0,0.0,0.0,0.0,1e+12,0.0,0.0,0.0,0.0,0.0,0.0,1e+12,0.0,0.0,0.0,0.0,0.0,0.0,0.001,0.00818940747298,0.00478392253861,0.0,0.0,0.0,0.0224054363111,0.0,0.0,0.0,0.0,0.0,0.0,0.0,0.0,0.0,0.0,0.0,0.0,0.0,0.0,0.0,0.0,0.0,0.0,0.0,0.0,0.0,0.0,0.0,0.0,0.0,0.0,0.0,0.0,0.0,0.0,0.0,0.0,0.0,0.0,0.0,0.0
1757605000000,13239,1757605000000,pioneer/odom,pioneer/base_link,0.10594507909,8.90005369432,0.114843948604,0.324506994724,0.1746923079,0.744385341967,0.556837741717,1e-05,0.0,0.0,0.0,0.0,0.0,0.0,1e-05,0.0,0.0,0.0,0.0,0.0,0.0,1e+12,0.0,0.0,0.0,0.0,0.0,0.0,1e+12,0.0,0.0,0.0,0.0,0.0,0.0,1e+12,0.0,0.0,0.0,0.0,0.0,0.0,0.001,0.0525921021548,0.0139435133426,0.0,0.0,0.0,0.0426337485834,0.0,0.0,0.0,0.0,0.0,0.0,0.0,0.0,0.0,0.0,0.0,0.0,0.0,0.0,0.0,0.0,0.0,0.0,0.0,0.0,0.0,0.0,0.0,0.0,0.0,0.0,0.0,0.0,0.0,0.0,0.0,0.0,0.0,0.0,0.0,0.0
1757615000000,13240,1757615000000,pioneer/odom,pioneer/base_link,0.105805323319,8.90057678804,0.114840346001,0.324403950874,0.174809204062,0.744457444279,0.556764701189,1e-05,0.0,0.0,0.0,0.0,0.0,0.0,1e-05,0.0,0.0,0.0,0.0,0.0,0.0,1e+12,0.0,0.0,0.0,0.0,0.0,0.0,1e+12,0.0,0.0,0.0,0.0,0.0,0.0,1e+12,0.0,0.0,0.0,0.0,0.0,0.0,0.001,0.060270018965,0.0103980617266,0.0,0.0,0.0,0.0281774539064,0.0,0.0,0.0,0.0,0.0,0.0,0.0,0.0,0.0,0.0,0.0,0.0,0.0,0.0,0.0,0.0,0.0,0.0,0.0,0.0,0.0,0.0,0.0,0.0,0.0,0.0,0.0,0.0,0.0,0.0,0.0,0.0,0.0,0.0,0.0,0.0
1757625000000,13241,1757625000000,pioneer/odom,pioneer/base_link,0.105577224275,8.90114064319,0.11485608897,0.324485199932,0.17481410366,0.744515040825,0.556638786083,1e-05,0.0,0.0,0.0,0.0,0.0,0.0,1e-05,0.0,0.0,0.0,0.0,0.0,0.0,1e+12,0.0,0.0,0.0,0.0,0.0,0.0,1e+12,0.0,0.0,0.0,0.0,0.0,0.0,1e+12,0.0,0.0,0.0,0.0,0.0,0.0,0.001,0.0664286769792,0.0171760266351,0.0,0.0,0.0,0.0213706335854,0.0,0.0,0.0,0.0,0.0,0.0,0.0,0.0,0.0,0.0,0.0,0.0,0.0,0.0,0.0,0.0,0.0,0.0,0.0,0.0,0.0,0.0,0.0,0.0,0.0,0.0,0.0,0.0,0.0,0.0,0.0,0.0,0.0,0.0,0.0,0.0
1757635000000,13242,1757635000000,pioneer/odom,pioneer/base_link,0.10523891123,8.90184078031,0.114871672214,0.324704531003,0.17469274077,0.744588763405,0.556450345745,1e-05,0.0,0.0,0.0,0.0,0.0,0.0,1e-05,0.0,0.0,0.0,0.0,0.0,0.0,1e+12,0.0,0.0,0.0,0.0,0.0,0.0,1e+12,0.0,0.0,0.0,0.0,0.0,0.0,1e+12,0.0,0.0,0.0,0.0,0.0,0.0,0.001,0.0830488339843,0.0200389705034,0.0,0.0,0.0,0.018318743365,0.0,0.0,0.0,0.0,0.0,0.0,0.0,0.0,0.0,0.0,0.0,0.0,0.0,0.0,0.0,0.0,0.0,0.0,0.0,0.0,0.0,0.0,0.0,0.0,0.0,0.0,0.0,0.0,0.0,0.0,0.0,0.0,0.0,0.0,0.0,0.0
1757645000000,13243,1757645000000,pioneer/odom,pioneer/base_link,0.105193810198,8.90208943832,0.114927176219,0.32478953486,0.174571919907,0.744644680666,0.556363821956,1e-05,0.0,0.0,0.0,0.0,0.0,0.0,1e-05,0.0,0.0,0.0,0.0,0.0,0.0,1e+12,0.0,0.0,0.0,0.0,0.0,0.0,1e+12,0.0,0.0,0.0,0.0,0.0,0.0,1e+12,0.0,0.0,0.0,0.0,0.0,0.0,0.001,-0.00130315777684,0.00177961824588,0.0,0.0,0.0,0.00140236423713,0.0,0.0,0.0,0.0,0.0,0.0,0.0,0.0,0.0,0.0,0.0,0.0,0.0,0.0,0.0,0.0,0.0,0.0,0.0,0.0,0.0,0.0,0.0,0.0,0.0,0.0,0.0,0.0,0.0,0.0,0.0,0.0,0.0,0.0,0.0,0.0
1757655000000,13244,1757655000000,pioneer/odom,pioneer/base_link,0.105164359618,8.9020940733,0.114881172294,0.324684401702,0.174531221138,0.74468091297,0.556389458921,1e-05,0.0,0.0,0.0,0.0,0.0,0.0,1e-05,0.0,0.0,0.0,0.0,0.0,0.0,1e+12,0.0,0.0,0.0,0.0,0.0,0.0,1e+12,0.0,0.0,0.0,0.0,0.0,0.0,1e+12,0.0,0.0,0.0,0.0,0.0,0.0,0.001,0.00277931395209,0.00358612977195,0.0,0.0,0.0,0.00121470926214,0.0,0.0,0.0,0.0,0.0,0.0,0.0,0.0,0.0,0.0,0.0,0.0,0.0,0.0,0.0,0.0,0.0,0.0,0.0,0.0,0.0,0.0,0.0,0.0,0.0,0.0,0.0,0.0,0.0,0.0,0.0,0.0,0.0,0.0,0.0,0.0
1757665000000,13245,1757665000000,pioneer/odom,pioneer/base_link,0.105201261653,8.90202070405,0.11485544857,0.324582983176,0.174579547296,0.744700407678,0.556407379087,1e-05,0.0,0.0,0.0,0.0,0.0,0.0,1e-05,0.0,0.0,0.0,0.0,0.0,0.0,1e+12,0.0,0.0,0.0,0.0,0.0,0.0,1e+12,0.0,0.0,0.0,0.0,0.0,0.0,1e+12,0.0,0.0,0.0,0.0,0.0,0.0,0.001,-0.0165040780283,-0.00527976328692,0.0,0.0,0.0,0.0103642201478,0.0,0.0,0.0,0.0,0.0,0.0,0.0,0.0,0.0,0.0,0.0,0.0,0.0,0.0,0.0,0.0,0.0,0.0,0.0,0.0,0.0,0.0,0.0,0.0,0.0,0.0,0.0,0.0,0.0,0.0,0.0,0.0,0.0,0.0,0.0,0.0
1757675000000,13246,1757675000000,pioneer/odom,pioneer/base_link,0.105118983853,8.90185401278,0.11486884142,0.324662868223,0.174751908844,0.744702880252,0.556303345754,1e-05,0.0,0.0,0.0,0.0,0.0,0.0,1e-05,0.0,0.0,0.0,0.0,0.0,0.0,1e+12,0.0,0.0,0.0,0.0,0.0,0.0,1e+12,0.0,0.0,0.0,0.0,0.0,0.0,1e+12,0.0,0.0,0.0,0.0,0.0,0.0,0.001,0.00325754407508,0.0300430566306,0.0,0.0,0.0,0.0383669396463,0.0,0.0,0.0,0.0,0.0,0.0,0.0,0.0,0.0,0.0,0.0,0.0,0.0,0.0,0.0,0.0,0.0,0.0,0.0,0.0,0.0,0.0,0.0,0.0,0.0,0.0,0.0,0.0,0.0,0.0,0.0,0.0,0.0,0.0,0.0,0.0
1757685000000,13247,1757685000000,pioneer/odom,pioneer/base_link,0.105088397379,8.90182763421,0.114943134068,0.324793179606,0.174882159236,0.744709463278,0.556177522169,1e-05,0.0,0.0,0.0,0.0,0.0,0.0,1e-05,0.0,0.0,0.0,0.0,0.0,0.0,1e+12,0.0,0.0,0.0,0.0,0.0,0.0,1e+12,0.0,0.0,0.0,0.0,0.0,0.0,1e+12,0.0,0.0,0.0,0.0,0.0,0.0,0.001,-0.00280339394332,0.00150781912163,0.0,0.0,0.0,0.0210972947641,0.0,0.0,0.0,0.0,0.0,0.0,0.0,0.0,0.0,0.0,0.0,0.0,0.0,0.0,0.0,0.0,0.0,0.0,0.0,0.0,0.0,0.0,0.0,0.0,0.0,0.0,0.0,0.0,0.0,0.0,0.0,0.0,0.0,0.0,0.0,0.0
1757695000000,13248,1757695000000,pioneer/odom,pioneer/base_link,0.105027139225,8.90181676673,0.114963465437,0.324822158839,0.17504403896,0.74471427328,0.556103228479,1e-05,0.0,0.0,0.0,0.0,0.0,0.0,1e-05,0.0,0.0,0.0,0.0,0.0,0.0,1e+12,0.0,0.0,0.0,0.0,0.0,0.0,1e+12,0.0,0.0,0.0,0.0,0.0,0.0,1e+12,0.0,0.0,0.0,0.0,0.0,0.0,0.001,0.0015669784612,0.00175088039629,0.0,0.0,0.0,0.0137930846383,0.0,0.0,0.0,0.0,0.0,0.0,0.0,0.0,0.0,0.0,0.0,0.0,0.0,0.0,0.0,0.0,0.0,0.0,0.0,0.0,0.0,0.0,0.0,0.0,0.0,0.0,0.0,0.0,0.0,0.0,0.0,0.0,0.0,0.0,0.0,0.0
1757705000000,13249,1757705000000,pioneer/odom,pioneer/base_link,0.105005292062,8.90182341585,0.115009251217,0.324923359263,0.175185517072,0.744687994068,0.556034744153,1e-05,0.0,0.0,0.0,0.0,0.0,0.0,1e-05,0.0,0.0,0.0,0.0,0.0,0.0,1e+12,0.0,0.0,0.0,0.0,0.0,0.0,1e+12,0.0,0.0,0.0,0.0,0.0,0.0,1e+12,0.0,0.0,0.0,0.0,0.0,0.0,0.001,-0.000865411250163,0.00737075246499,0.0,0.0,0.0,0.0213350110079,0.0,0.0,0.0,0.0,0.0,0.0,0.0,0.0,0.0,0.0,0.0,0.0,0.0,0.0,0.0,0.0,0.0,0.0,0.0,0.0,0.0,0.0,0.0,0.0,0.0,0.0,0.0,0.0,0.0,0.0,0.0,0.0,0.0,0.0,0.0,0.0
1757715000000,13250,1757715000000,pioneer/odom,pioneer/base_link,0.104959383899,8.90181452255,0.115058806263,0.325013538924,0.175356491714,0.744685857409,0.55593099761,1e-05,0.0,0.0,0.0,0.0,0.0,0.0,1e-05,0.0,0.0,0.0,0.0,0.0,0.0,1e+12,0.0,0.0,0.0,0.0,0.0,0.0,1e+12,0.0,0.0,0.0,0.0,0.0,0.0,1e+12,0.0,0.0,0.0,0.0,0.0,0.0,0.001,0.00331974929705,0.0106686747924,0.0,0.0,0.0,0.0327769938185,0.0,0.0,0.0,0.0,0.0,0.0,0.0,0.0,0.0,0.0,0.0,0.0,0.0,0.0,0.0,0.0,0.0,0.0,0.0,0.0,0.0,0.0,0.0,0.0,0.0,0.0,0.0,0.0,0.0,0.0,0.0,0.0,0.0,0.0,0.0,0.0
1757725000000,13251,1757725000000,pioneer/odom,pioneer/base_link,0.104930006225,8.90179266345,0.115114235019,0.325111783773,0.175530488431,0.744686652374,0.555817564907,1e-05,0.0,0.0,0.0,0.0,0.0,0.0,1e-05,0.0,0.0,0.0,0.0,0.0,0.0,1e+12,0.0,0.0,0.0,0.0,0.0,0.0,1e+12,0.0,0.0,0.0,0.0,0.0,0.0,1e+12,0.0,0.0,0.0,0.0,0.0,0.0,0.001,-0.0023290115689,0.00101277222943,0.0,0.0,0.0,0.0230027567138,0.0,0.0,0.0,0.0,0.0,0.0,0.0,0.0,0.0,0.0,0.0,0.0,0.0,0.0,0.0,0.0,0.0,0.0,0.0,0.0,0.0,0.0,0.0,0.0,0.0,0.0,0.0,0.0,0.0,0.0,0.0,0.0,0.0,0.0,0.0,0.0
1757735000000,13252,1757735000000,pioneer/odom,pioneer/base_link,0.104907969732,8.90177816951,0.115159867495,0.325193588423,0.175708618285,0.744690148218,0.555708731851,1e-05,0.0,0.0,0.0,0.0,0.0,0.0,1e-05,0.0,0.0,0.0,0.0,0.0,0.0,1e+12,0.0,0.0,0.0,0.0,0.0,0.0,1e+12,0.0,0.0,0.0,0.0,0.0,0.0,1e+12,0.0,0.0,0.0,0.0,0.0,0.0,0.001,-0.00234849879527,0.00163968448635,0.0,0.0,0.0,0.0236057017281,0.0,0.0,0.0,0.0,0.0,0.0,0.0,0.0,0.0,0.0,0.0,0.0,0.0,0.0,0.0,0.0,0.0,0.0,0.0,0.0,0.0,0.0,0.0,0.0,0.0,0.0,0.0,0.0,0.0,0.0,0.0,0.0,0.0,0.0,0.0,0.0
1757745000000,13253,1757745000000,pioneer/odom,pioneer/base_link,0.104904599617,8.90175624681,0.115194773582,0.325256232216,0.175822969796,0.744689072246,0.555637338894,1e-05,0.0,0.0,0.0,0.0,0.0,0.0,1e-05,0.0,0.0,0.0,0.0,0.0,0.0,1e+12,0.0,0.0,0.0,0.0,0.0,0.0,1e+12,0.0,0.0,0.0,0.0,0.0,0.0,1e+12,0.0,0.0,0.0,0.0,0.0,0.0,0.001,-0.0016858571508,0.000469645167972,0.0,0.0,0.0,0.0113502463518,0.0,0.0,0.0,0.0,0.0,0.0,0.0,0.0,0.0,0.0,0.0,0.0,0.0,0.0,0.0,0.0,0.0,0.0,0.0,0.0,0.0,0.0,0.0,0.0,0.0,0.0,0.0,0.0,0.0,0.0,0.0,0.0,0.0,0.0,0.0,0.0
1757755000000,13254,1757755000000,pioneer/odom,pioneer/base_link,0.104895530744,8.90173927464,0.115209844818,0.325279773126,0.175876011954,0.744699386642,0.555592945555,1e-05,0.0,0.0,0.0,0.0,0.0,0.0,1e-05,0.0,0.0,0.0,0.0,0.0,0.0,1e+12,0.0,0.0,0.0,0.0,0.0,0.0,1e+12,0.0,0.0,0.0,0.0,0.0,0.0,1e+12,0.0,0.0,0.0,0.0,0.0,0.0,0.001,-0.00146055393614,0.0019743112974,0.0,0.0,0.0,0.0103564137249,0.0,0.0,0.0,0.0,0.0,0.0,0.0,0.0,0.0,0.0,0.0,0.0,0.0,0.0,0.0,0.0,0.0,0.0,0.0,0.0,0.0,0.0,0.0,0.0,0.0,0.0,0.0,0.0,0.0,0.0,0.0,0.0,0.0,0.0,0.0,0.0
1757765000000,13255,1757765000000,pioneer/odom,pioneer/base_link,0.104885821317,8.90173106354,0.115208566123,0.325272683337,0.175874586615,0.744713653712,0.555578424017,1e-05,0.0,0.0,0.0,0.0,0.0,0.0,1e-05,0.0,0.0,0.0,0.0,0.0,0.0,1e+12,0.0,0.0,0.0,0.0,0.0,0.0,1e+12,0.0,0.0,0.0,0.0,0.0,0.0,1e+12,0.0,0.0,0.0,0.0,0.0,0.0,0.001,0.000257073266505,-7.88112466402e-05,0.0,0.0,0.0,-0.00264436171056,0.0,0.0,0.0,0.0,0.0,0.0,0.0,0.0,0.0,0.0,0.0,0.0,0.0,0.0,0.0,0.0,0.0,0.0,0.0,0.0,0.0,0.0,0.0,0.0,0.0,0.0,0.0,0.0,0.0,0.0,0.0,0.0,0.0,0.0,0.0,0.0
1757775000000,13256,1757775000000,pioneer/odom,pioneer/base_link,0.104877592665,8.90174612773,0.115201800144,0.32525885038,0.175833927862,0.744716425783,0.555595676038,1e-05,0.0,0.0,0.0,0.0,0.0,0.0,1e-05,0.0,0.0,0.0,0.0,0.0,0.0,1e+12,0.0,0.0,0.0,0.0,0.0,0.0,1e+12,0.0,0.0,0.0,0.0,0.0,0.0,1e+12,0.0,0.0,0.0,0.0,0.0,0.0,0.001,0.000644766133282,7.47320747376e-05,0.0,0.0,0.0,-0.00514863822666,0.0,0.0,0.0,0.0,0.0,0.0,0.0,0.0,0.0,0.0,0.0,0.0,0.0,0.0,0.0,0.0,0.0,0.0,0.0,0.0,0.0,0.0,0.0,0.0,0.0,0.0,0.0,0.0,0.0,0.0,0.0,0.0,0.0,0.0,0.0,0.0
1757785000000,13257,1757785000000,pioneer/odom,pioneer/base_link,0.10487305299,8.90176126154,0.115191104192,0.325239375894,0.175771759295,0.744713095248,0.555631211118,1e-05,0.0,0.0,0.0,0.0,0.0,0.0,1e-05,0.0,0.0,0.0,0.0,0.0,0.0,1e+12,0.0,0.0,0.0,0.0,0.0,0.0,1e+12,0.0,0.0,0.0,0.0,0.0,0.0,1e+12,0.0,0.0,0.0,0.0,0.0,0.0,0.001,0.00072620390947,-0.000988675465435,0.0,0.0,0.0,-0.00966093338288,0.0,0.0,0.0,0.0,0.0,0.0,0.0,0.0,0.0,0.0,0.0,0.0,0.0,0.0,0.0,0.0,0.0,0.0,0.0,0.0,0.0,0.0,0.0,0.0,0.0,0.0,0.0,0.0,0.0,0.0,0.0,0.0,0.0,0.0,0.0,0.0
1757795000000,13258,1757795000000,pioneer/odom,pioneer/base_link,0.104857031506,8.90178365005,0.115169532021,0.325205086233,0.175702254825,0.744700857402,0.555689663862,1e-05,0.0,0.0,0.0,0.0,0.0,0.0,1e-05,0.0,0.0,0.0,0.0,0.0,0.0,1e+12,0.0,0.0,0.0,0.0,0.0,0.0,1e+12,0.0,0.0,0.0,0.0,0.0,0.0,1e+12,0.0,0.0,0.0,0.0,0.0,0.0,0.001,0.00363921023834,0.0109160912893,0.0,0.0,0.0,-0.00855308943024,0.0,0.0,0.0,0.0,0.0,0.0,0.0,0.0,0.0,0.0,0.0,0.0,0.0,0.0,0.0,0.0,0.0,0.0,0.0,0.0,0.0,0.0,0.0,0.0,0.0,0.0,0.0,0.0,0.0,0.0,0.0,0.0,0.0,0.0,0.0,0.0
1757805000000,13259,1757805000000,pioneer/odom,pioneer/base_link,0.104855980461,8.90181425595,0.115148403235,0.325175357684,0.175630212401,0.744677399079,0.555761267585,1e-05,0.0,0.0,0.0,0.0,0.0,0.0,1e-05,0.0,0.0,0.0,0.0,0.0,0.0,1e+12,0.0,0.0,0.0,0.0,0.0,0.0,1e+12,0.0,0.0,0.0,0.0,0.0,0.0,1e+12,0.0,0.0,0.0,0.0,0.0,0.0,0.001,0.00528759013749,0.0178415626841,0.0,0.0,0.0,-0.0049320903579,0.0,0.0,0.0,0.0,0.0,0.0,0.0,0.0,0.0,0.0,0.0,0.0,0.0,0.0,0.0,0.0,0.0,0.0,0.0,0.0,0.0,0.0,0.0,0.0,0.0,0.0,0.0,0.0,0.0,0.0,0.0,0.0,0.0,0.0,0.0,0.0
1757815000000,13260,1757815000000,pioneer/odom,pioneer/base_link,0.104844512964,8.90183511988,0.115138354135,0.325162036539,0.175590727628,0.744664300465,0.55579908778,1e-05,0.0,0.0,0.0,0.0,0.0,0.0,1e-05,0.0,0.0,0.0,0.0,0.0,0.0,1e+12,0.0,0.0,0.0,0.0,0.0,0.0,1e+12,0.0,0.0,0.0,0.0,0.0,0.0,1e+12,0.0,0.0,0.0,0.0,0.0,0.0,0.001,0.00489466146726,0.00725439411925,0.0,0.0,0.0,0.000758880424083,0.0,0.0,0.0,0.0,0.0,0.0,0.0,0.0,0.0,0.0,0.0,0.0,0.0,0.0,0.0,0.0,0.0,0.0,0.0,0.0,0.0,0.0,0.0,0.0,0.0,0.0,0.0,0.0,0.0,0.0,0.0,0.0,0.0,0.0,0.0,0.0
1757825000000,13261,1757825000000,pioneer/odom,pioneer/base_link,0.104858551463,8.90185264027,0.115138856631,0.32516790916,0.175576383148,0.744646029529,0.555824662316,1e-05,0.0,0.0,0.0,0.0,0.0,0.0,1e-05,0.0,0.0,0.0,0.0,0.0,0.0,1e+12,0.0,0.0,0.0,0.0,0.0,0.0,1e+12,0.0,0.0,0.0,0.0,0.0,0.0,1e+12,0.0,0.0,0.0,0.0,0.0,0.0,0.001,0.00108176221277,-0.000728106200008,0.0,0.0,0.0,-0.00452032972818,0.0,0.0,0.0,0.0,0.0,0.0,0.0,0.0,0.0,0.0,0.0,0.0,0.0,0.0,0.0,0.0,0.0,0.0,0.0,0.0,0.0,0.0,0.0,0.0,0.0,0.0,0.0,0.0,0.0,0.0,0.0,0.0,0.0,0.0,0.0,0.0
1757835000000,13262,1757835000000,pioneer/odom,pioneer/base_link,0.104831269791,8.901857847,0.115135851537,0.325161596152,0.175571124556,0.744649544437,0.55582530761,1e-05,0.0,0.0,0.0,0.0,0.0,0.0,1e-05,0.0,0.0,0.0,0.0,0.0,0.0,1e+12,0.0,0.0,0.0,0.0,0.0,0.0,1e+12,0.0,0.0,0.0,0.0,0.0,0.0,1e+12,0.0,0.0,0.0,0.0,0.0,0.0,0.001,9.91820213637e-05,0.00178094286284,0.0,0.0,0.0,0.00457519662408,0.0,0.0,0.0,0.0,0.0,0.0,0.0,0.0,0.0,0.0,0.0,0.0,0.0,0.0,0.0,0.0,0.0,0.0,0.0,0.0,0.0,0.0,0.0,0.0,0.0,0.0,0.0,0.0,0.0,0.0,0.0,0.0,0.0,0.0,0.0,0.0
1757845000000,13263,1757845000000,pioneer/odom,pioneer/base_link,0.104832993558,8.90186061045,0.115147295093,0.325181388846,0.175567673884,0.744645479984,0.555820263552,1e-05,0.0,0.0,0.0,0.0,0.0,0.0,1e-05,0.0,0.0,0.0,0.0,0.0,0.0,1e+12,0.0,0.0,0.0,0.0,0.0,0.0,1e+12,0.0,0.0,0.0,0.0,0.0,0.0,1e+12,0.0,0.0,0.0,0.0,0.0,0.0,0.001,0.000522068853558,-0.00253931788756,0.0,0.0,0.0,-0.00815386026309,0.0,0.0,0.0,0.0,0.0,0.0,0.0,0.0,0.0,0.0,0.0,0.0,0.0,0.0,0.0,0.0,0.0,0.0,0.0,0.0,0.0,0.0,0.0,0.0,0.0,0.0,0.0,0.0,0.0,0.0,0.0,0.0,0.0,0.0,0.0,0.0
1757855000000,13264,1757855000000,pioneer/odom,pioneer/base_link,0.104798559475,8.90187940148,0.115143451866,0.325182107164,0.175574445948,0.744620581702,0.555851059562,1e-05,0.0,0.0,0.0,0.0,0.0,0.0,1e-05,0.0,0.0,0.0,0.0,0.0,0.0,1e+12,0.0,0.0,0.0,0.0,0.0,0.0,1e+12,0.0,0.0,0.0,0.0,0.0,0.0,1e+12,0.0,0.0,0.0,0.0,0.0,0.0,0.001,0.0019730242631,0.00635176463404,0.0,0.0,0.0,-0.00527899197476,0.0,0.0,0.0,0.0,0.0,0.0,0.0,0.0,0.0,0.0,0.0,0.0,0.0,0.0,0.0,0.0,0.0,0.0,0.0,0.0,0.0,0.0,0.0,0.0,0.0,0.0,0.0,0.0,0.0,0.0,0.0,0.0,0.0,0.0,0.0,0.0
1757865000000,13265,1757865000000,pioneer/odom,pioneer/base_link,0.104794297599,8.90187892091,0.115146087257,0.325190745427,0.175602098124,0.74461818906,0.555840475985,1e-05,0.0,0.0,0.0,0.0,0.0,0.0,1e-05,0.0,0.0,0.0,0.0,0.0,0.0,1e+12,0.0,0.0,0.0,0.0,0.0,0.0,1e+12,0.0,0.0,0.0,0.0,0.0,0.0,1e+12,0.0,0.0,0.0,0.0,0.0,0.0,0.001,0.00032385176472,-0.000777065209616,0.0,0.0,0.0,0.0013576750383,0.0,0.0,0.0,0.0,0.0,0.0,0.0,0.0,0.0,0.0,0.0,0.0,0.0,0.0,0.0,0.0,0.0,0.0,0.0,0.0,0.0,0.0,0.0,0.0,0.0,0.0,0.0,0.0,0.0,0.0,0.0,0.0,0.0,0.0,0.0,0.0
1757875000000,13266,1757875000000,pioneer/odom,pioneer/base_link,0.10481051189,8.90189789232,0.1151718186,0.32524483664,0.175630527633,0.744586196284,0.555842702845,1e-05,0.0,0.0,0.0,0.0,0.0,0.0,1e-05,0.0,0.0,0.0,0.0,0.0,0.0,1e+12,0.0,0.0,0.0,0.0,0.0,0.0,1e+12,0.0,0.0,0.0,0.0,0.0,0.0,1e+12,0.0,0.0,0.0,0.0,0.0,0.0,0.001,0.0016049000655,-0.00318559571738,0.0,0.0,0.0,-0.00880969675908,0.0,0.0,0.0,0.0,0.0,0.0,0.0,0.0,0.0,0.0,0.0,0.0,0.0,0.0,0.0,0.0,0.0,0.0,0.0,0.0,0.0,0.0,0.0,0.0,0.0,0.0,0.0,0.0,0.0,0.0,0.0,0.0,0.0,0.0,0.0,0.0
1757885000000,13267,1757885000000,pioneer/odom,pioneer/base_link,0.104757607343,8.90194785804,0.115176515761,0.325260764195,0.175665053864,0.744587029666,0.555821355634,1e-05,0.0,0.0,0.0,0.0,0.0,0.0,1e-05,0.0,0.0,0.0,0.0,0.0,0.0,1e+12,0.0,0.0,0.0,0.0,0.0,0.0,1e+12,0.0,0.0,0.0,0.0,0.0,0.0,1e+12,0.0,0.0,0.0,0.0,0.0,0.0,0.001,0.0132613358882,0.00503727754194,0.0,0.0,0.0,0.0083123573142,0.0,0.0,0.0,0.0,0.0,0.0,0.0,0.0,0.0,0.0,0.0,0.0,0.0,0.0,0.0,0.0,0.0,0.0,0.0,0.0,0.0,0.0,0.0,0.0,0.0,0.0,0.0,0.0,0.0,0.0,0.0,0.0,0.0,0.0,0.0,0.0
1757895000000,13268,1757895000000,pioneer/odom,pioneer/base_link,0.104743963658,8.90194697823,0.115183708004,0.325266855086,0.175681472274,0.744586043006,0.555813923757,1e-05,0.0,0.0,0.0,0.0,0.0,0.0,1e-05,0.0,0.0,0.0,0.0,0.0,0.0,1e+12,0.0,0.0,0.0,0.0,0.0,0.0,1e+12,0.0,0.0,0.0,0.0,0.0,0.0,1e+12,0.0,0.0,0.0,0.0,0.0,0.0,0.001,0.00150057129981,0.00357712959573,0.0,0.0,0.0,0.000170020975857,0.0,0.0,0.0,0.0,0.0,0.0,0.0,0.0,0.0,0.0,0.0,0.0,0.0,0.0,0.0,0.0,0.0,0.0,0.0,0.0,0.0,0.0,0.0,0.0,0.0,0.0,0.0,0.0,0.0,0.0,0.0,0.0,0.0,0.0,0.0,0.0
1757905000000,13269,1757905000000,pioneer/odom,pioneer/base_link,0.104741760024,8.90195457153,0.115196928426,0.325295417861,0.175701490202,0.74456808976,0.555814930683,1e-05,0.0,0.0,0.0,0.0,0.0,0.0,1e-05,0.0,0.0,0.0,0.0,0.0,0.0,1e+12,0.0,0.0,0.0,0.0,0.0,0.0,1e+12,0.0,0.0,0.0,0.0,0.0,0.0,1e+12,0.0,0.0,0.0,0.0,0.0,0.0,0.001,0.000349440815991,-0.00176510409484,0.0,0.0,0.0,-0.00369900379915,0.0,0.0,0.0,0.0,0.0,0.0,0.0,0.0,0.0,0.0,0.0,0.0,0.0,0.0,0.0,0.0,0.0,0.0,0.0,0.0,0.0,0.0,0.0,0.0,0.0,0.0,0.0,0.0,0.0,0.0,0.0,0.0,0.0,0.0,0.0,0.0
1757915000000,13270,1757915000000,pioneer/odom,pioneer/base_link,0.104716915136,8.90195530146,0.115201200229,0.325306544803,0.175743259894,0.744563093814,0.555801905214,1e-05,0.0,0.0,0.0,0.0,0.0,0.0,1e-05,0.0,0.0,0.0,0.0,0.0,0.0,1e+12,0.0,0.0,0.0,0.0,0.0,0.0,1e+12,0.0,0.0,0.0,0.0,0.0,0.0,1e+12,0.0,0.0,0.0,0.0,0.0,0.0,0.001,0.000906727694209,0.00450865073681,0.0,0.0,0.0,0.00659693943594,0.0,0.0,0.0,0.0,0.0,0.0,0.0,0.0,0.0,0.0,0.0,0.0,0.0,0.0,0.0,0.0,0.0,0.0,0.0,0.0,0.0,0.0,0.0,0.0,0.0,0.0,0.0,0.0,0.0,0.0,0.0,0.0,0.0,0.0,0.0,0.0
1757925000000,13271,1757925000000,pioneer/odom,pioneer/base_link,0.104718215112,8.90196456251,0.115223616005,0.325353690377,0.175795987365,0.744538574987,0.555790479714,1e-05,0.0,0.0,0.0,0.0,0.0,0.0,1e-05,0.0,0.0,0.0,0.0,0.0,0.0,1e+12,0.0,0.0,0.0,0.0,0.0,0.0,1e+12,0.0,0.0,0.0,0.0,0.0,0.0,1e+12,0.0,0.0,0.0,0.0,0.0,0.0,0.001,4.28064376747e-06,-0.000501674671648,0.0,0.0,0.0,0.00360242747541,0.0,0.0,0.0,0.0,0.0,0.0,0.0,0.0,0.0,0.0,0.0,0.0,0.0,0.0,0.0,0.0,0.0,0.0,0.0,0.0,0.0,0.0,0.0,0.0,0.0,0.0,0.0,0.0,0.0,0.0,0.0,0.0,0.0,0.0,0.0,0.0
1757935000000,13272,1757935000000,pioneer/odom,pioneer/base_link,0.104701939833,8.90197039423,0.115234047399,0.325374812809,0.175842648886,0.744542075115,0.555758663815,1e-05,0.0,0.0,0.0,0.0,0.0,0.0,1e-05,0.0,0.0,0.0,0.0,0.0,0.0,1e+12,0.0,0.0,0.0,0.0,0.0,0.0,1e+12,0.0,0.0,0.0,0.0,0.0,0.0,1e+12,0.0,0.0,0.0,0.0,0.0,0.0,0.001,0.00138541070528,0.00265186171081,0.0,0.0,0.0,0.00906528730666,0.0,0.0,0.0,0.0,0.0,0.0,0.0,0.0,0.0,0.0,0.0,0.0,0.0,0.0,0.0,0.0,0.0,0.0,0.0,0.0,0.0,0.0,0.0,0.0,0.0,0.0,0.0,0.0,0.0,0.0,0.0,0.0,0.0,0.0,0.0,0.0
1757945000000,13273,1757945000000,pioneer/odom,pioneer/base_link,0.104688740979,8.90195335453,0.115242948981,0.325380671655,0.175868262661,0.744561774115,0.555720736727,1e-05,0.0,0.0,0.0,0.0,0.0,0.0,1e-05,0.0,0.0,0.0,0.0,0.0,0.0,1e+12,0.0,0.0,0.0,0.0,0.0,0.0,1e+12,0.0,0.0,0.0,0.0,0.0,0.0,1e+12,0.0,0.0,0.0,0.0,0.0,0.0,0.001,-0.000948066723039,0.00171759901861,0.0,0.0,0.0,0.00860592000797,0.0,0.0,0.0,0.0,0.0,0.0,0.0,0.0,0.0,0.0,0.0,0.0,0.0,0.0,0.0,0.0,0.0,0.0,0.0,0.0,0.0,0.0,0.0,0.0,0.0,0.0,0.0,0.0,0.0,0.0,0.0,0.0,0.0,0.0,0.0,0.0
1757955000000,13274,1757955000000,pioneer/odom,pioneer/base_link,0.104686864458,8.90195715879,0.115250826428,0.325397145522,0.175897469336,0.744555436499,0.555710338168,1e-05,0.0,0.0,0.0,0.0,0.0,0.0,1e-05,0.0,0.0,0.0,0.0,0.0,0.0,1e+12,0.0,0.0,0.0,0.0,0.0,0.0,1e+12,0.0,0.0,0.0,0.0,0.0,0.0,1e+12,0.0,0.0,0.0,0.0,0.0,0.0,0.001,0.000187038555241,1.0633523128e-05,0.0,0.0,0.0,0.00280675004571,0.0,0.0,0.0,0.0,0.0,0.0,0.0,0.0,0.0,0.0,0.0,0.0,0.0,0.0,0.0,0.0,0.0,0.0,0.0,0.0,0.0,0.0,0.0,0.0,0.0,0.0,0.0,0.0,0.0,0.0,0.0,0.0,0.0,0.0,0.0,0.0
1757965000000,13275,1757965000000,pioneer/odom,pioneer/base_link,0.104682257745,8.90196103131,0.115258023327,0.325411227876,0.175922300419,0.744552055689,0.555698761342,1e-05,0.0,0.0,0.0,0.0,0.0,0.0,1e-05,0.0,0.0,0.0,0.0,0.0,0.0,1e+12,0.0,0.0,0.0,0.0,0.0,0.0,1e+12,0.0,0.0,0.0,0.0,0.0,0.0,1e+12,0.0,0.0,0.0,0.0,0.0,0.0,0.001,-0.000301253877838,0.0021654182732,0.0,0.0,0.0,0.00523821188726,0.0,0.0,0.0,0.0,0.0,0.0,0.0,0.0,0.0,0.0,0.0,0.0,0.0,0.0,0.0,0.0,0.0,0.0,0.0,0.0,0.0,0.0,0.0,0.0,0.0,0.0,0.0,0.0,0.0,0.0,0.0,0.0,0.0,0.0,0.0,0.0
1757975000000,13276,1757975000000,pioneer/odom,pioneer/base_link,0.104675482324,8.90196529454,0.115261047146,0.325413747946,0.17593108097,0.744560365352,0.555683371843,1e-05,0.0,0.0,0.0,0.0,0.0,0.0,1e-05,0.0,0.0,0.0,0.0,0.0,0.0,1e+12,0.0,0.0,0.0,0.0,0.0,0.0,1e+12,0.0,0.0,0.0,0.0,0.0,0.0,1e+12,0.0,0.0,0.0,0.0,0.0,0.0,0.001,0.00214460709514,0.000397540663467,0.0,0.0,0.0,0.000637194909103,0.0,0.0,0.0,0.0,0.0,0.0,0.0,0.0,0.0,0.0,0.0,0.0,0.0,0.0,0.0,0.0,0.0,0.0,0.0,0.0,0.0,0.0,0.0,0.0,0.0,0.0,0.0,0.0,0.0,0.0,0.0,0.0,0.0,0.0,0.0,0.0
1757985000000,13277,1757985000000,pioneer/odom,pioneer/base_link,0.104665750221,8.90196578849,0.115257790973,0.325406764018,0.175937981015,0.744566185107,0.555677479085,1e-05,0.0,0.0,0.0,0.0,0.0,0.0,1e-05,0.0,0.0,0.0,0.0,0.0,0.0,1e+12,0.0,0.0,0.0,0.0,0.0,0.0,1e+12,0.0,0.0,0.0,0.0,0.0,0.0,1e+12,0.0,0.0,0.0,0.0,0.0,0.0,0.001,0.000753832073969,0.00434449632398,0.0,0.0,0.0,0.0078783617597,0.0,0.0,0.0,0.0,0.0,0.0,0.0,0.0,0.0,0.0,0.0,0.0,0.0,0.0,0.0,0.0,0.0,0.0,0.0,0.0,0.0,0.0,0.0,0.0,0.0,0.0,0.0,0.0,0.0,0.0,0.0,0.0,0.0,0.0,0.0,0.0
1757995000000,13278,1757995000000,pioneer/odom,pioneer/base_link,0.104671248369,8.9019678853,0.115258218721,0.325403797906,0.175914424743,0.744573238776,0.555677222473,1e-05,0.0,0.0,0.0,0.0,0.0,0.0,1e-05,0.0,0.0,0.0,0.0,0.0,0.0,1e+12,0.0,0.0,0.0,0.0,0.0,0.0,1e+12,0.0,0.0,0.0,0.0,0.0,0.0,1e+12,0.0,0.0,0.0,0.0,0.0,0.0,0.001,0.00100836484801,-0.000791532671562,0.0,0.0,0.0,-0.00636895935999,0.0,0.0,0.0,0.0,0.0,0.0,0.0,0.0,0.0,0.0,0.0,0.0,0.0,0.0,0.0,0.0,0.0,0.0,0.0,0.0,0.0,0.0,0.0,0.0,0.0,0.0,0.0,0.0,0.0,0.0,0.0,0.0,0.0,0.0,0.0,0.0
1758005000000,13279,1758005000000,pioneer/odom,pioneer/base_link,0.104670387143,8.90197513615,0.115253170348,0.32539576731,0.175886069242,0.744568656218,0.555697041058,1e-05,0.0,0.0,0.0,0.0,0.0,0.0,1e-05,0.0,0.0,0.0,0.0,0.0,0.0,1e+12,0.0,0.0,0.0,0.0,0.0,0.0,1e+12,0.0,0.0,0.0,0.0,0.0,0.0,1e+12,0.0,0.0,0.0,0.0,0.0,0.0,0.001,0.00165895894764,-0.00125707637514,0.0,0.0,0.0,-0.00900979676462,0.0,0.0,0.0,0.0,0.0,0.0,0.0,0.0,0.0,0.0,0.0,0.0,0.0,0.0,0.0,0.0,0.0,0.0,0.0,0.0,0.0,0.0,0.0,0.0,0.0,0.0,0.0,0.0,0.0,0.0,0.0,0.0,0.0,0.0,0.0,0.0
1758015000000,13280,1758015000000,pioneer/odom,pioneer/base_link,0.104665429281,8.90198994839,0.115246348355,0.325388122593,0.1758434866,0.744552565073,0.555736552459,1e-05,0.0,0.0,0.0,0.0,0.0,0.0,1e-05,0.0,0.0,0.0,0.0,0.0,0.0,1e+12,0.0,0.0,0.0,0.0,0.0,0.0,1e+12,0.0,0.0,0.0,0.0,0.0,0.0,1e+12,0.0,0.0,0.0,0.0,0.0,0.0,0.001,0.0025412977778,-0.00175404136415,0.0,0.0,0.0,-0.0132050530418,0.0,0.0,0.0,0.0,0.0,0.0,0.0,0.0,0.0,0.0,0.0,0.0,0.0,0.0,0.0,0.0,0.0,0.0,0.0,0.0,0.0,0.0,0.0,0.0,0.0,0.0,0.0,0.0,0.0,0.0,0.0,0.0,0.0,0.0,0.0,0.0
1758025000000,13281,1758025000000,pioneer/odom,pioneer/base_link,0.104627398907,8.90202215252,0.115237837155,0.325387092463,0.175830165729,0.744526854581,0.555775814232,1e-05,0.0,0.0,0.0,0.0,0.0,0.0,1e-05,0.0,0.0,0.0,0.0,0.0,0.0,1e+12,0.0,0.0,0.0,0.0,0.0,0.0,1e+12,0.0,0.0,0.0,0.0,0.0,0.0,1e+12,0.0,0.0,0.0,0.0,0.0,0.0,0.001,0.00212796652937,-0.00518104530249,0.0,0.0,0.0,-0.0144847308799,0.0,0.0,0.0,0.0,0.0,0.0,0.0,0.0,0.0,0.0,0.0,0.0,0.0,0.0,0.0,0.0,0.0,0.0,0.0,0.0,0.0,0.0,0.0,0.0,0.0,0.0,0.0,0.0,0.0,0.0,0.0,0.0,0.0,0.0,0.0,0.0
1758035000000,13282,1758035000000,pioneer/odom,pioneer/base_link,0.104603999737,8.90205303421,0.115239619708,0.325403218176,0.175821849436,0.744486818331,0.555822633753,1e-05,0.0,0.0,0.0,0.0,0.0,0.0,1e-05,0.0,0.0,0.0,0.0,0.0,0.0,1e+12,0.0,0.0,0.0,0.0,0.0,0.0,1e+12,0.0,0.0,0.0,0.0,0.0,0.0,1e+12,0.0,0.0,0.0,0.0,0.0,0.0,0.001,0.003842470114,0.00383570772983,0.0,0.0,0.0,-0.00918076333213,0.0,0.0,0.0,0.0,0.0,0.0,0.0,0.0,0.0,0.0,0.0,0.0,0.0,0.0,0.0,0.0,0.0,0.0,0.0,0.0,0.0,0.0,0.0,0.0,0.0,0.0,0.0,0.0,0.0,0.0,0.0,0.0,0.0,0.0,0.0,0.0
1758045000000,13283,1758045000000,pioneer/odom,pioneer/base_link,0.104594935479,8.90206473273,0.115249207355,0.325423583902,0.175817738248,0.744460018199,0.55584790659,1e-05,0.0,0.0,0.0,0.0,0.0,0.0,1e-05,0.0,0.0,0.0,0.0,0.0,0.0,1e+12,0.0,0.0,0.0,0.0,0.0,0.0,1e+12,0.0,0.0,0.0,0.0,0.0,0.0,1e+12,0.0,0.0,0.0,0.0,0.0,0.0,0.001,0.00112532633501,-0.00247273112162,0.0,0.0,0.0,-0.00919213908336,0.0,0.0,0.0,0.0,0.0,0.0,0.0,0.0,0.0,0.0,0.0,0.0,0.0,0.0,0.0,0.0,0.0,0.0,0.0,0.0,0.0,0.0,0.0,0.0,0.0,0.0,0.0,0.0,0.0,0.0,0.0,0.0,0.0,0.0,0.0,0.0
1758055000000,13284,1758055000000,pioneer/odom,pioneer/base_link,0.104575460468,8.9020644682,0.115246608213,0.325416549103,0.175841763854,0.744465782673,0.555836704513,1e-05,0.0,0.0,0.0,0.0,0.0,0.0,1e-05,0.0,0.0,0.0,0.0,0.0,0.0,1e+12,0.0,0.0,0.0,0.0,0.0,0.0,1e+12,0.0,0.0,0.0,0.0,0.0,0.0,1e+12,0.0,0.0,0.0,0.0,0.0,0.0,0.001,0.00370173076582,0.00489274835862,0.0,0.0,0.0,0.0112633097834,0.0,0.0,0.0,0.0,0.0,0.0,0.0,0.0,0.0,0.0,0.0,0.0,0.0,0.0,0.0,0.0,0.0,0.0,0.0,0.0,0.0,0.0,0.0,0.0,0.0,0.0,0.0,0.0,0.0,0.0,0.0,0.0,0.0,0.0,0.0,0.0
1758065000000,13285,1758065000000,pioneer/odom,pioneer/base_link,0.104574695123,8.90206525774,0.115263710734,0.325450205831,0.175871927348,0.744459204425,0.555816266084,1e-05,0.0,0.0,0.0,0.0,0.0,0.0,1e-05,0.0,0.0,0.0,0.0,0.0,0.0,1e+12,0.0,0.0,0.0,0.0,0.0,0.0,1e+12,0.0,0.0,0.0,0.0,0.0,0.0,1e+12,0.0,0.0,0.0,0.0,0.0,0.0,0.001,-0.000230570382723,0.00513929193752,0.0,0.0,0.0,0.00777429375532,0.0,0.0,0.0,0.0,0.0,0.0,0.0,0.0,0.0,0.0,0.0,0.0,0.0,0.0,0.0,0.0,0.0,0.0,0.0,0.0,0.0,0.0,0.0,0.0,0.0,0.0,0.0,0.0,0.0,0.0,0.0,0.0,0.0,0.0,0.0,0.0
1758075000000,13286,1758075000000,pioneer/odom,pioneer/base_link,0.104564114971,8.90206865145,0.115284690656,0.325492247058,0.175934019597,0.744444590889,0.555791569701,1e-05,0.0,0.0,0.0,0.0,0.0,0.0,1e-05,0.0,0.0,0.0,0.0,0.0,0.0,1e+12,0.0,0.0,0.0,0.0,0.0,0.0,1e+12,0.0,0.0,0.0,0.0,0.0,0.0,1e+12,0.0,0.0,0.0,0.0,0.0,0.0,0.001,-0.000112301074713,-0.00145193049732,0.0,0.0,0.0,0.00116393571983,0.0,0.0,0.0,0.0,0.0,0.0,0.0,0.0,0.0,0.0,0.0,0.0,0.0,0.0,0.0,0.0,0.0,0.0,0.0,0.0,0.0,0.0,0.0,0.0,0.0,0.0,0.0,0.0,0.0,0.0,0.0,0.0,0.0,0.0,0.0,0.0
1758085000000,13287,1758085000000,pioneer/odom,pioneer/base_link,0.104554723708,8.90207536549,0.115299528336,0.325520458535,0.175991593153,0.744441001371,0.555761626682,1e-05,0.0,0.0,0.0,0.0,0.0,0.0,1e-05,0.0,0.0,0.0,0.0,0.0,0.0,1e+12,0.0,0.0,0.0,0.0,0.0,0.0,1e+12,0.0,0.0,0.0,0.0,0.0,0.0,1e+12,0.0,0.0,0.0,0.0,0.0,0.0,0.001,-0.000957904874306,0.000143406725109,0.0,0.0,0.0,0.00610818447921,0.0,0.0,0.0,0.0,0.0,0.0,0.0,0.0,0.0,0.0,0.0,0.0,0.0,0.0,0.0,0.0,0.0,0.0,0.0,0.0,0.0,0.0,0.0,0.0,0.0,0.0,0.0,0.0,0.0,0.0,0.0,0.0,0.0,0.0,0.0,0.0
1758095000000,13288,1758095000000,pioneer/odom,pioneer/base_link,0.104539167123,8.90208682347,0.115309478499,0.32553617275,0.176020897275,0.74445125883,0.55572940104,1e-05,0.0,0.0,0.0,0.0,0.0,0.0,1e-05,0.0,0.0,0.0,0.0,0.0,0.0,1e+12,0.0,0.0,0.0,0.0,0.0,0.0,1e+12,0.0,0.0,0.0,0.0,0.0,0.0,1e+12,0.0,0.0,0.0,0.0,0.0,0.0,0.001,0.00348106000421,-0.00141966694989,0.0,0.0,0.0,0.00420723292247,0.0,0.0,0.0,0.0,0.0,0.0,0.0,0.0,0.0,0.0,0.0,0.0,0.0,0.0,0.0,0.0,0.0,0.0,0.0,0.0,0.0,0.0,0.0,0.0,0.0,0.0,0.0,0.0,0.0,0.0,0.0,0.0,0.0,0.0,0.0,0.0
1758105000000,13289,1758105000000,pioneer/odom,pioneer/base_link,0.104533938721,8.90208470041,0.11531344934,0.32554103987,0.176039501266,0.744453805044,0.555717246006,1e-05,0.0,0.0,0.0,0.0,0.0,0.0,1e-05,0.0,0.0,0.0,0.0,0.0,0.0,1e+12,0.0,0.0,0.0,0.0,0.0,0.0,1e+12,0.0,0.0,0.0,0.0,0.0,0.0,1e+12,0.0,0.0,0.0,0.0,0.0,0.0,0.001,-4.91150858182e-05,0.00138608858959,0.0,0.0,0.0,0.00344673369312,0.0,0.0,0.0,0.0,0.0,0.0,0.0,0.0,0.0,0.0,0.0,0.0,0.0,0.0,0.0,0.0,0.0,0.0,0.0,0.0,0.0,0.0,0.0,0.0,0.0,0.0,0.0,0.0,0.0,0.0,0.0,0.0,0.0,0.0,0.0,0.0
1758115000000,13290,1758115000000,pioneer/odom,pioneer/base_link,0.104526726877,8.90208990494,0.115317519237,0.325549646577,0.176049497403,0.74444959964,0.555714671098,1e-05,0.0,0.0,0.0,0.0,0.0,0.0,1e-05,0.0,0.0,0.0,0.0,0.0,0.0,1e+12,0.0,0.0,0.0,0.0,0.0,0.0,1e+12,0.0,0.0,0.0,0.0,0.0,0.0,1e+12,0.0,0.0,0.0,0.0,0.0,0.0,0.001,1.8349976904e-05,-0.000456474008003,0.0,0.0,0.0,-0.000953947630845,0.0,0.0,0.0,0.0,0.0,0.0,0.0,0.0,0.0,0.0,0.0,0.0,0.0,0.0,0.0,0.0,0.0,0.0,0.0,0.0,0.0,0.0,0.0,0.0,0.0,0.0,0.0,0.0,0.0,0.0,0.0,0.0,0.0,0.0,0.0,0.0
1758125000000,13291,1758125000000,pioneer/odom,pioneer/base_link,0.104524797379,8.90208811787,0.115324883923,0.325563141842,0.176058274151,0.744446280325,0.555708431183,1e-05,0.0,0.0,0.0,0.0,0.0,0.0,1e-05,0.0,0.0,0.0,0.0,0.0,0.0,1e+12,0.0,0.0,0.0,0.0,0.0,0.0,1e+12,0.0,0.0,0.0,0.0,0.0,0.0,1e+12,0.0,0.0,0.0,0.0,0.0,0.0,0.001,-0.000535279990851,-3.40060435271e-05,0.0,0.0,0.0,0.0018656103021,0.0,0.0,0.0,0.0,0.0,0.0,0.0,0.0,0.0,0.0,0.0,0.0,0.0,0.0,0.0,0.0,0.0,0.0,0.0,0.0,0.0,0.0,0.0,0.0,0.0,0.0,0.0,0.0,0.0,0.0,0.0,0.0,0.0,0.0,0.0,0.0
1758135000000,13292,1758135000000,pioneer/odom,pioneer/base_link,0.104508102834,8.90210013621,0.115331428112,0.325577408465,0.176066661279,0.744437229118,0.555709540844,1e-05,0.0,0.0,0.0,0.0,0.0,0.0,1e-05,0.0,0.0,0.0,0.0,0.0,0.0,1e+12,0.0,0.0,0.0,0.0,0.0,0.0,1e+12,0.0,0.0,0.0,0.0,0.0,0.0,1e+12,0.0,0.0,0.0,0.0,0.0,0.0,0.001,0.000633614413862,-0.00172017464239,0.0,0.0,0.0,-0.00501140833777,0.0,0.0,0.0,0.0,0.0,0.0,0.0,0.0,0.0,0.0,0.0,0.0,0.0,0.0,0.0,0.0,0.0,0.0,0.0,0.0,0.0,0.0,0.0,0.0,0.0,0.0,0.0,0.0,0.0,0.0,0.0,0.0,0.0,0.0,0.0,0.0
